,local_unique_id,address,Country,lat,lng,coordinate_type,living_area,price,currency,title,type,offer_type,url
0,69468,"Grafická, Praha 5 - Smíchov",CZ,50.0727965249743,14.393182617281001,point,58.0,7511000.0,CZK,Prodej bytu 2+kk 58 m² (Mezonet),apartment,sale,https://www.sreality.cz/detail/prodej/byt/2+kk/praha-smichov-graficka/69468
1,118364,"Ostrava - Moravská Ostrava, okres Ostrava-město",CZ,49.834645200004104,18.2820440791588,polygon,81.0,3600000.0,CZK,Prodej bytu 3+1 81 m²,apartment,sale,https://www.sreality.cz/detail/prodej/byt/3+1/ostrava-moravska-ostrava-/118364
3,261724,"Libušina, Karlovy Vary",CZ,50.221042748699396,12.886521975427305,line,132.0,11386200.0,CZK,Prodej bytu 3+kk 132 m² (Mezonet),apartment,sale,https://www.sreality.cz/detail/prodej/byt/3+kk/karlovy-vary-karlovy-vary-libusina/261724
6,446044,"Vivienda 203 de Urbanización El Diamante de Marina de Casares- Casares Costa, Španělsko",CZ,36.37732000000001,-5.2203800000000005,point,140.0,9624050.0,CZK,Prodej bytu 4+kk 140 m²,apartment,sale,https://www.sreality.cz/detail/prodej/byt/4+kk/vivienda-203-de-urbanizacion-el-diamante-de-marina-de-casares--casares-costa--/446044
9,495452,"Purkyňova, Plzeň - Jižní Předměstí",CZ,49.74078624166661,13.3742868242009,point,84.0,3999000.0,CZK,Prodej bytu 3+kk 84 m²,apartment,sale,https://www.sreality.cz/detail/prodej/byt/3+kk/plzen-jizni-predmesti-purkynova/495452
11,556636,"Na Šibeníku, Olomouc - Nová Ulice",CZ,49.597289,17.236442,point,63.0,3212620.0,CZK,Prodej bytu 2+kk 63 m²,apartment,sale,https://www.sreality.cz/detail/prodej/byt/2+kk/olomouc-nova-ulice-na-sibeniku/556636
14,798556,"Jakubská, Praha 1 - Staré Město",CZ,50.08813858032229,14.426770210266099,point,39.0,7490000.0,CZK,Prodej bytu 1+1 39 m²,apartment,sale,https://www.sreality.cz/detail/prodej/byt/1+1/praha-stare-mesto-jakubska/798556
16,1166940,"Rybářská, Plzeň - Jižní Předměstí",CZ,49.7495873240786,13.3658158735533,point,98.0,4320000.0,CZK,Prodej bytu 2+kk 98 m²,apartment,sale,https://www.sreality.cz/detail/prodej/byt/2+kk/plzen-jizni-predmesti-rybarska/1166940
20,1650268,"Velvarská, Horoměřice",CZ,50.1372383,14.3358605,point,78.0,5300000.0,CZK,Prodej bytu 2+kk 78 m²,apartment,sale,https://www.sreality.cz/detail/prodej/byt/2+kk/horomerice-horomerice-velvarska/1650268
21,1695324,"Slezská, Praha 3 - Vinohrady",CZ,50.0768013000488,14.463970184326199,point,112.0,11200000.0,CZK,Prodej bytu 3+kk 112 m² (Mezonet),apartment,sale,https://www.sreality.cz/detail/prodej/byt/3+kk/praha-vinohrady-slezska/1695324
23,1805404,"Plzeňská, Praha 5 - Motol",CZ,50.06983899094421,14.3666511183928,line,106.0,11000000.0,CZK,Prodej bytu 3+kk 106 m²,apartment,sale,https://www.sreality.cz/detail/prodej/byt/3+kk/praha-motol-plzenska/1805404
24,1896028,"Karla Kofránka, Hořice",CZ,50.3604408705226,15.635240193065199,point,38.0,2270040.0,CZK,Prodej bytu 2+kk 38 m²,apartment,sale,https://www.sreality.cz/detail/prodej/byt/2+kk/horice-horice-karla-kofranka/1896028
29,2289500,"Kuttelwascherova, Praha 9 - Černý Most",CZ,50.1050392117303,14.5805173126773,line,108.0,7699000.0,CZK,Prodej bytu 4+1 108 m²,apartment,sale,https://www.sreality.cz/detail/prodej/byt/4+1/praha-cerny-most-kuttelwascherova/2289500
31,2416220,"Chebská, Mariánské Lázně",CZ,49.9650639,12.6941771,point,30.0,2007369.0,CZK,Prodej bytu 1+kk 30 m²,apartment,sale,https://www.sreality.cz/detail/prodej/byt/1+kk/marianske-lazne-marianske-lazne-chebska/2416220
33,3026524,"Černý Důl, okres Trutnov",CZ,50.629299163818395,15.7120304107666,point,82.0,4950000.0,CZK,Prodej bytu 3+kk 82 m²,apartment,sale,https://www.sreality.cz/detail/prodej/byt/3+kk/cerny-dul-cerny-dul-/3026524
39,4877916,"U Řepory, Praha 5 - Stodůlky",CZ,50.042843,14.309628,point,104.0,13229070.0,CZK,Prodej bytu 4+kk 104 m²,apartment,sale,https://www.sreality.cz/detail/prodej/byt/4+kk/praha-stodulky-u-repory/4877916
40,2432604,"Lipová, Tachov",CZ,49.801809999999996,12.628029,point,65.0,1799000.0,CZK,Prodej bytu 2+1 65 m²,apartment,sale,https://www.sreality.cz/detail/prodej/byt/2+1/tachov-tachov-lipova/2432604
42,5479516,"Dlouhá, Praha 1 - Staré Město",CZ,50.0901001272248,14.4243459151219,line,60.0,10380000.0,CZK,Prodej bytu 2+1 60 m²,apartment,sale,https://www.sreality.cz/detail/prodej/byt/2+1/praha-stare-mesto-dlouha/5479516
45,5836636,"Slezská, Praha 3 - Vinohrady",CZ,50.07650694005979,14.454623602978499,point,81.0,9900000.0,CZK,Prodej bytu 2+1 81 m²,apartment,sale,https://www.sreality.cz/detail/prodej/byt/2+1/praha-vinohrady-slezska/5836636
48,6041180,"Římská, Praha 2 - Vinohrady",CZ,50.077808380127,14.432979583740199,point,63.0,7500000.0,CZK,Prodej bytu 3+1 63 m²,apartment,sale,https://www.sreality.cz/detail/prodej/byt/3+1/praha-vinohrady-rimska/6041180
49,6119260,"Osvobození, Tišnov",CZ,49.3554840613239,16.4249397211968,line,73.0,3490000.0,CZK,Prodej bytu 3+1 73 m²,apartment,sale,https://www.sreality.cz/detail/prodej/byt/3+1/tisnov-tisnov-osvobozeni/6119260
50,6528604,"Wolkerova, Olomouc",CZ,49.587557409258785,17.2437306100076,line,89.0,4725750.0,CZK,Prodej bytu 3+kk 89 m²,apartment,sale,https://www.sreality.cz/detail/prodej/byt/3+kk/olomouc-olomouc-wolkerova/6528604
51,6541148,"Břízová, Moravský Krumlov",CZ,49.0414914471533,16.307565145755998,point,93.0,2900000.0,CZK,Prodej bytu 3+1 93 m²,apartment,sale,https://www.sreality.cz/detail/prodej/byt/3+1/moravsky-krumlov-moravsky-krumlov-brizova/6541148
52,6758236,"Dělnická, Praha 7 - Holešovice",CZ,50.1034152250195,14.4545532413247,point,110.0,12987261.0,CZK,Prodej bytu 4+kk 110 m²,apartment,sale,https://www.sreality.cz/detail/prodej/byt/4+kk/praha-holesovice-delnicka/6758236
55,7036764,"Mařákova, Litomyšl - Litomyšl-Město",CZ,49.8622956733569,16.3057623624,line,63.0,2899000.0,CZK,Prodej bytu 3+1 63 m²,apartment,sale,https://www.sreality.cz/detail/prodej/byt/3+1/litomysl-litomysl-mesto-marakova/7036764
57,7475036,"Na Zámyšli, Praha 5 - Košíře",CZ,50.069538670829104,14.374029540579,point,49.0,4990000.0,CZK,Prodej bytu 2+kk 49 m²,apartment,sale,https://www.sreality.cz/detail/prodej/byt/2+kk/praha-kosire-na-zamysli/7475036
58,7606108,"Opava, okres Opava",CZ,49.9306055,17.877936899999995,point,141.0,3990000.0,CZK,Prodej bytu 3+kk 141 m²,apartment,sale,https://www.sreality.cz/detail/prodej/byt/3+kk/opava--/7606108
60,7642204,"Brněnská, Česká Lípa",CZ,50.69242594065639,14.547927132515099,line,75.0,1650000.0,CZK,Prodej bytu 3+1 75 m²,apartment,sale,https://www.sreality.cz/detail/prodej/byt/3+1/ceska-lipa-ceska-lipa-brnenska/7642204
61,7715932,"Na Sídlišti, Dolní Bousov",CZ,50.437698864782114,15.121475087179899,point,88.0,2590000.0,CZK,Prodej bytu 3+1 88 m²,apartment,sale,https://www.sreality.cz/detail/prodej/byt/3+1/dolni-bousov-dolni-bousov-na-sidlisti/7715932
62,7982684,"Na Výsluní, Boskovice",CZ,49.490320949956796,16.6683836189052,line,47.0,2981059.0,CZK,Prodej bytu 2+kk 47 m²,apartment,sale,https://www.sreality.cz/detail/prodej/byt/2+kk/boskovice-boskovice-na-vysluni/7982684
64,8711772,"Buchlovice, okres Uherské Hradiště",CZ,49.076371161817995,17.3370733688202,point,231.0,8502000.0,CZK,Prodej bytu 4+kk 231 m²,apartment,sale,https://www.sreality.cz/detail/prodej/byt/4+kk/buchlovice-buchlovice-/8711772
68,8900188,"Veselí nad Lužnicí, okres Tábor",CZ,49.1842961257374,14.6973358340078,polygon,63.0,1090000.0,CZK,Prodej bytu 3+1 63 m²,apartment,sale,https://www.sreality.cz/detail/prodej/byt/3+1/veseli-nad-luznici--/8900188
69,9612892,"Na Nivách, Cheb",CZ,50.0721652495688,12.356436898622,line,53.0,2390000.0,CZK,Prodej bytu 2+kk 53 m²,apartment,sale,https://www.sreality.cz/detail/prodej/byt/2+kk/cheb-cheb-na-nivach/9612892
70,9846364,"Křižíkova, Praha 8 - Karlín",CZ,50.092059988100004,14.4496298273,point,48.0,8000000.0,CZK,Prodej bytu 2+kk 48 m²,apartment,sale,https://www.sreality.cz/detail/prodej/byt/2+kk/praha-karlin-krizikova/9846364
72,10169948,"Zenklova, Praha 8",CZ,50.1045455,14.4724294,point,54.0,6154512.0,CZK,Prodej bytu 2+kk 54 m²,apartment,sale,https://www.sreality.cz/detail/prodej/byt/2+kk/praha-praha-8-zenklova/10169948
73,10424156,"Španělská, Praha 2 - Vinohrady",CZ,50.07930607016539,14.4341042576209,point,27.0,4860000.0,CZK,Prodej bytu 1+kk 27 m²,apartment,sale,https://www.sreality.cz/detail/prodej/byt/1+kk/praha-vinohrady-spanelska/10424156
75,10702684,"Ke Kotlářce, Praha 5 - Košíře",CZ,50.0693861486673,14.3566788953915,point,65.0,4700000.0,CZK,Prodej bytu 2+1 65 m²,apartment,sale,https://www.sreality.cz/detail/prodej/byt/2+1/praha-kosire-ke-kotlarce/10702684
76,10861660,"Nádražní, Ostrava - Moravská Ostrava a Přívoz",CZ,49.8427505493164,18.2820796966553,point,85.0,3100000.0,CZK,Prodej bytu 3+1 85 m²,apartment,sale,https://www.sreality.cz/detail/prodej/byt/3+1/ostrava-moravska-ostrava-a-privoz-nadrazni/10861660
79,10989404,"Cabo Roig, Španělsko",CZ,37.9150112393615,-0.7238513088255442,point,79.0,4201915.0,CZK,Prodej bytu 3+1 79 m²,apartment,sale,https://www.sreality.cz/detail/prodej/byt/3+1/cabo-roig--/10989404
81,11071324,"Úvoz, Brno - Staré Brno",CZ,49.1950279400506,16.594590246261,point,58.0,4990000.0,CZK,Prodej bytu 1+kk 58 m²,apartment,sale,https://www.sreality.cz/detail/prodej/byt/1+kk/brno-stare-brno-uvoz/11071324
83,11046492,"Národních mučedníků, Veselí nad Moravou",CZ,48.949577891759795,17.3827635861799,point,76.0,2274000.0,CZK,Prodej bytu 2+kk 76 m²,apartment,sale,https://www.sreality.cz/detail/prodej/byt/2+kk/veseli-nad-moravou-veseli-nad-moravou-narodnich-mucedniku/11046492
85,12021340,"Kurandové, Praha 5 - Hlubočepy",CZ,50.032111,14.379739,point,41.0,4750000.0,CZK,Prodej bytu 2+kk 41 m²,apartment,sale,https://www.sreality.cz/detail/prodej/byt/2+kk/praha-hlubocepy-kurandove/12021340
88,12500060,"Křepice, okres Břeclav",CZ,49.001162069303504,16.7261871421804,point,97.0,2990000.0,CZK,Prodej bytu 3+1 97 m²,apartment,sale,https://www.sreality.cz/detail/prodej/byt/3+1/krepice-krepice-/12500060
89,12865372,"Tribunj, Chorvatsko",CZ,43.756950378418,15.747570037841802,point,86.0,4688404.0,CZK,Prodej bytu 3+kk 86 m² (Mezonet),apartment,sale,https://www.sreality.cz/detail/prodej/byt/3+kk/tribunj--/12865372
91,13066076,"Věrovany - Nenakonice, okres Olomouc",CZ,49.4697083820488,17.2857493092176,polygon,670.0,3800000.0,CZK,Prodej bytu 5+1 670 m²,apartment,sale,https://www.sreality.cz/detail/prodej/byt/5+1/verovany-nenakonice-/13066076
93,13343836,"Kašperské Hory, okres Klatovy",CZ,49.14289152388621,13.556160961812001,polygon,47.0,2820000.0,CZK,Prodej bytu 2+kk 47 m²,apartment,sale,https://www.sreality.cz/detail/prodej/byt/2+kk/kasperske-hory-kasperske-hory-/13343836
95,14261340,"Malešická, Praha 10 - Malešice",CZ,50.0867296167664,14.4960584798276,point,155.0,18491402.0,CZK,Prodej bytu 5+kk 155 m²,apartment,sale,https://www.sreality.cz/detail/prodej/byt/5+kk/praha-malesice-malesicka/14261340
97,14774108,"Generála Janouška, Praha 9 - Černý Most",CZ,50.10631175256579,14.5704930343119,point,87.0,5750000.0,CZK,Prodej bytu 4+1 87 m²,apartment,sale,https://www.sreality.cz/detail/prodej/byt/4+1/praha-cerny-most-generala-janouska/14774108
99,15182940,"Za Lékárnou, Rtyně v Podkrkonoší",CZ,50.50706252473061,16.0678892181954,point,57.0,1400000.0,CZK,Prodej bytu 2+1 57 m²,apartment,sale,https://www.sreality.cz/detail/prodej/byt/2+1/rtyne-v-podkrkonosi-rtyne-v-podkrkonosi-za-lekarnou/15182940
105,15973468,"Útulná, Praha 10 - Malešice",CZ,50.082845555555714,14.493159387965,point,55.0,4890000.0,CZK,Prodej bytu 2+1 55 m²,apartment,sale,https://www.sreality.cz/detail/prodej/byt/2+1/praha-malesice-utulna/15973468
107,16113244,"Terronská, Praha 6 - Bubeneč",CZ,50.10263,14.399044,point,166.0,19500000.0,CZK,Prodej bytu 4+kk 166 m²,apartment,sale,https://www.sreality.cz/detail/prodej/byt/4+kk/praha-bubenec-terronska/16113244
108,16100444,"Tehov - Nemíž, okres Benešov",CZ,49.742752038096114,14.9335276251413,polygon,78.0,2500000.0,CZK,Prodej bytu 3+1 78 m²,apartment,sale,https://www.sreality.cz/detail/prodej/byt/3+1/tehov-nemiz-/16100444
109,16142172,"Raichlova, Praha 5 - Stodůlky",CZ,50.0381581555266,14.328942435300501,point,60.0,5399000.0,CZK,Prodej bytu 2+kk 60 m²,apartment,sale,https://www.sreality.cz/detail/prodej/byt/2+kk/praha-stodulky-raichlova/16142172
110,16424796,"Wenzigova, Praha 2 - Nové Město",CZ,50.0708276095501,14.4313719249276,point,78.0,6990000.0,CZK,Prodej bytu 3+kk 78 m²,apartment,sale,https://www.sreality.cz/detail/prodej/byt/3+kk/praha-nove-mesto-wenzigova/16424796
112,16555612,"Jankovcova, Praha 7 - Holešovice",CZ,50.1105093694938,14.4506235097543,point,204.0,12000000.0,CZK,Prodej bytu 2+kk 204 m² (Mezonet),apartment,sale,https://www.sreality.cz/detail/prodej/byt/2+kk/praha-holesovice-jankovcova/16555612
113,16895580,"Letní, Brno - Židenice",CZ,49.19244783,16.6354037864,point,52.0,3990000.0,CZK,Prodej bytu 2+kk 52 m²,apartment,sale,https://www.sreality.cz/detail/prodej/byt/2+kk/brno-zidenice-letni/16895580
114,16739932,"Anny Letenské, Praha 2 - Vinohrady",CZ,50.07788244278849,14.4378942825308,line,126.0,18950000.0,CZK,Prodej bytu 3+1 126 m²,apartment,sale,https://www.sreality.cz/detail/prodej/byt/3+1/praha-vinohrady-anny-letenske/16739932
115,16957276,"U Sluncové, Praha 8 - Karlín",CZ,50.09562683105471,14.4695501327515,point,33.0,4526892.0,CZK,Prodej bytu 1+kk 33 m²,apartment,sale,https://www.sreality.cz/detail/prodej/byt/1+kk/praha-karlin-u-sluncove/16957276
116,17075804,"ulice Krále Jiřího, Karlovy Vary - část obce Karlovy Vary",CZ,50.2275584040574,12.874146122196498,line,85.0,4160000.0,CZK,Prodej bytu 3+1 85 m²,apartment,sale,https://www.sreality.cz/detail/prodej/byt/3+1/karlovy-vary-cast-obce-karlovy-vary-ulice-krale-jiriho/17075804
118,17476700,"Nad Hřištěm, Nová Ves",CZ,50.2198547090479,14.5322363949033,line,64.0,5590000.0,CZK,Prodej bytu 2+kk 64 m²,apartment,sale,https://www.sreality.cz/detail/prodej/byt/2+kk/nova-ves-nova-ves-nad-hristem/17476700
119,17444444,"Komenského, Fryšták - Horní Ves",CZ,49.2889875524897,17.6907873769659,line,57.0,2899050.0,CZK,Prodej bytu 2+kk 57 m²,apartment,sale,https://www.sreality.cz/detail/prodej/byt/2+kk/frystak-horni-ves-komenskeho/17444444
121,17530716,"Naskové, Praha 5 - Košíře",CZ,50.0622985641325,14.363470455696199,point,152.0,19593530.0,CZK,Prodej bytu 5+kk 152 m²,apartment,sale,https://www.sreality.cz/detail/prodej/byt/5+kk/praha-kosire-naskove/17530716
122,17719132,"Jedličkova, Litvínov - Horní Litvínov",CZ,50.606459705713704,13.6277852305883,line,61.0,1890000.0,CZK,Prodej bytu 3+1 61 m²,apartment,sale,https://www.sreality.cz/detail/prodej/byt/3+1/litvinov-horni-litvinov-jedlickova/17719132
129,19033692,"Havlíčkova, Havlíčkův Brod",CZ,49.612819257,15.5618141611,point,77.0,3325000.0,CZK,Prodej bytu 3+kk 77 m²,apartment,sale,https://www.sreality.cz/detail/prodej/byt/3+kk/havlickuv-brod-havlickuv-brod-havlickova/19033692
131,19082844,"Bezděkovská, Strakonice - Strakonice II",CZ,49.2538329434389,13.907969603704801,point,54.0,1880000.0,CZK,Prodej bytu 2+1 54 m²,apartment,sale,https://www.sreality.cz/detail/prodej/byt/2+1/strakonice-strakonice-ii-bezdekovska/19082844
133,19315804,"Zvonková, Havířov - Šumbark",CZ,49.8027181556598,18.420253681546303,point,79.0,1620000.0,CZK,Prodej bytu 3+1 79 m²,apartment,sale,https://www.sreality.cz/detail/prodej/byt/3+1/havirov-sumbark-zvonkova/19315804
134,19328860,"Višňová, Milovice - Mladá",CZ,50.2276945567582,14.866917787667804,point,81.0,3990000.0,CZK,Prodej bytu 3+kk 81 m²,apartment,sale,https://www.sreality.cz/detail/prodej/byt/3+kk/milovice-mlada-visnova/19328860
136,19640156,"Na Petynce, Praha 6 - Břevnov",CZ,50.0877666998291,14.368231416628499,point,138.0,14850000.0,CZK,Prodej bytu 3+kk 138 m²,apartment,sale,https://www.sreality.cz/detail/prodej/byt/3+kk/praha-brevnov-na-petynce/19640156
137,19672924,"Vřídelní, Karlovy Vary",CZ,50.2247003872,12.8834683793,point,99.0,4250000.0,CZK,Prodej bytu 3+1 99 m²,apartment,sale,https://www.sreality.cz/detail/prodej/byt/3+1/karlovy-vary-karlovy-vary-vridelni/19672924
139,19873628,"Karla Pokorného, Ostrava - Poruba",CZ,49.837823711352904,18.1812473582253,line,65.0,2550000.0,CZK,Prodej bytu 3+1 65 m²,apartment,sale,https://www.sreality.cz/detail/prodej/byt/3+1/ostrava-poruba-karla-pokorneho/19873628
140,19840860,"Barrandovská, Praha - Hlubočepy",CZ,50.03315415139979,14.398689762480302,line,224.0,17700000.0,CZK,Prodej bytu 3+kk 224 m²,apartment,sale,https://www.sreality.cz/detail/prodej/byt/3+kk/praha-hlubocepy-barrandovska/19840860
142,20524636,"17. listopadu, Chomutov",CZ,50.4796213836449,13.420384465578499,point,80.0,1190000.0,CZK,Prodej bytu 3+1 80 m²,apartment,sale,https://www.sreality.cz/detail/prodej/byt/3+1/chomutov-chomutov-17--listopadu/20524636
147,21163868,"Kuželova, Praha 9 - Letňany",CZ,50.141177026899996,14.5105130028,point,82.0,5790000.0,CZK,Prodej bytu 3+kk 82 m² (Mezonet),apartment,sale,https://www.sreality.cz/detail/prodej/byt/3+kk/praha-letnany-kuzelova/21163868
148,21077084,"Antonína Poledníka, Ostrava - Dubina",CZ,49.77774408822479,18.2526651658078,line,68.0,2250000.0,CZK,Prodej bytu 3+1 68 m²,apartment,sale,https://www.sreality.cz/detail/prodej/byt/3+1/ostrava-dubina-antonina-polednika/21077084
149,21110620,"Větrná, Ústí nad Labem - Severní Terasa",CZ,50.68432,14.026060000000001,point,69.0,1690000.0,CZK,Prodej bytu 2+1 69 m²,apartment,sale,https://www.sreality.cz/detail/prodej/byt/2+1/usti-nad-labem-severni-terasa-vetrna/21110620
151,21277788,"Novodvorská, Praha 4 - Lhotka",CZ,50.019882700000004,14.446404600000001,point,78.0,5790000.0,CZK,Prodej bytu 3+kk 78 m²,apartment,sale,https://www.sreality.cz/detail/prodej/byt/3+kk/praha-lhotka-novodvorska/21277788
153,21319516,"Hasičská, Ostrava - Hrabůvka",CZ,49.7921672388947,18.2624017842662,line,92.0,4020000.0,CZK,Prodej bytu 4+kk 92 m²,apartment,sale,https://www.sreality.cz/detail/prodej/byt/4+kk/ostrava-hrabuvka-hasicska/21319516
155,21987164,"Na Kozačce, Praha 2 - Vinohrady",CZ,50.0714613393013,14.442352826898599,line,35.0,4690000.0,CZK,Prodej bytu 2+kk 35 m²,apartment,sale,https://www.sreality.cz/detail/prodej/byt/2+kk/praha-vinohrady-na-kozacce/21987164
156,21487196,"Kolbenova, Praha",CZ,50.1106023994707,14.517480313799698,line,100.0,11211430.0,CZK,Prodej bytu 4+kk 100 m²,apartment,sale,https://www.sreality.cz/detail/prodej/byt/4+kk/praha--kolbenova/21487196
160,22715484,"Horova, Olomouc - Hodolany",CZ,49.596577704,17.2882974974,point,50.0,3090000.0,CZK,Prodej bytu 2+1 50 m²,apartment,sale,https://www.sreality.cz/detail/prodej/byt/2+1/olomouc-hodolany-horova/22715484
161,22576988,"Bedřicha Václavka, Ostrava - Bělský Les",CZ,49.7821298146391,18.2492278834113,line,85.0,2890000.0,CZK,Prodej bytu 4+1 85 m²,apartment,sale,https://www.sreality.cz/detail/prodej/byt/4+1/ostrava-belsky-les-bedricha-vaclavka/22576988
162,22605404,"Třebízského, Slaný",CZ,50.232307399999996,14.082638699999999,point,105.0,5316726.0,CZK,Prodej bytu 3+kk 105 m²,apartment,sale,https://www.sreality.cz/detail/prodej/byt/3+kk/slany-slany-trebizskeho/22605404
163,22822492,"Matrei in Osttirol, Rakousko",CZ,46.9999999342775,12.5333332910304,point,31.0,3930950.0,CZK,Prodej bytu 1+kk 31 m²,apartment,sale,https://www.sreality.cz/detail/prodej/byt/1+kk/matrei-in-osttirol--/22822492
167,23240284,"Vir, Chorvatsko",CZ,44.3009530163818,15.0884988898015,point,115.0,5422000.0,CZK,Prodej bytu 3+kk 115 m²,apartment,sale,https://www.sreality.cz/detail/prodej/byt/3+kk/vir--/23240284
169,23670364,"Unhošť, okres Kladno",CZ,50.086999999999996,14.135717000000001,point,87.0,6364820.0,CZK,Prodej bytu 4+kk 87 m²,apartment,sale,https://www.sreality.cz/detail/prodej/byt/4+kk/unhost-unhost-/23670364
171,23756636,"S. K. Neumanna, Chrudim - Chrudim III",CZ,49.94147491963761,15.7974034505261,line,58.0,2995000.0,CZK,Prodej bytu 2+1 58 m²,apartment,sale,https://www.sreality.cz/detail/prodej/byt/2+1/chrudim-chrudim-iii-s--k--neumanna/23756636
172,23960668,"Spojovací, Dobřany",CZ,49.6563072587971,13.296360557707901,line,73.0,2790000.0,CZK,Prodej bytu 3+1 73 m²,apartment,sale,https://www.sreality.cz/detail/prodej/byt/3+1/dobrany-dobrany-spojovaci/23960668
173,24121180,"Písečná, Rožnov pod Radhoštěm",CZ,49.4683776030954,18.1348812488928,point,85.0,4300000.0,CZK,Prodej bytu 3+kk 85 m²,apartment,sale,https://www.sreality.cz/detail/prodej/byt/3+kk/roznov-pod-radhostem-roznov-pod-radhostem-pisecna/24121180
176,23973468,"Olomouc, okres Olomouc",CZ,49.593868693598786,17.2508705732619,polygon,117.0,6188380.0,CZK,Prodej bytu 3+kk 117 m²,apartment,sale,https://www.sreality.cz/detail/prodej/byt/3+kk/olomouc--/23973468
179,24964700,"Konzumní, Praha 9 - Hloubětín",CZ,50.1060221375705,14.5332110364693,line,55.0,5588424.0,CZK,Prodej bytu 2+kk 55 m²,apartment,sale,https://www.sreality.cz/detail/prodej/byt/2+kk/praha-hloubetin-konzumni/24964700
181,25022044,"Zlín - Příluky, okres Zlín",CZ,49.2269256795985,17.713443981305797,polygon,74.0,4438100.0,CZK,Prodej bytu 3+kk 74 m²,apartment,sale,https://www.sreality.cz/detail/prodej/byt/3+kk/zlin-priluky-/25022044
182,25005916,"Mírová, Lovosice",CZ,50.512020057436104,14.0560086562835,line,54.0,1390000.0,CZK,Prodej bytu 2+1 54 m²,apartment,sale,https://www.sreality.cz/detail/prodej/byt/2+1/lovosice-lovosice-mirova/25005916
186,25214044,"Petrohradská, Praha 10 - Vršovice",CZ,50.0682610904153,14.450835283817899,point,58.0,6354900.0,CZK,Prodej bytu 2+1 58 m²,apartment,sale,https://www.sreality.cz/detail/prodej/byt/2+1/praha-vrsovice-petrohradska/25214044
194,26177372,"Holečkova, Praha 5 - Smíchov",CZ,50.073593100000004,14.393877,point,47.0,4999500.0,CZK,Prodej bytu 1+kk 47 m² (Mezonet),apartment,sale,https://www.sreality.cz/detail/prodej/byt/1+kk/praha-smichov-holeckova/26177372
197,26615644,"Střížkovská, Praha 9 - Střížkov",CZ,50.124982397475,14.484176370522,point,23.0,2690000.0,CZK,Prodej bytu 1+kk 23 m²,apartment,sale,https://www.sreality.cz/detail/prodej/byt/1+kk/praha-strizkov-strizkovska/26615644
199,26894172,"Plzenecká, Plzeň - Východní Předměstí",CZ,49.738689967591,13.3930835493997,line,62.0,2790000.0,CZK,Prodej bytu 2+1 62 m²,apartment,sale,https://www.sreality.cz/detail/prodej/byt/2+1/plzen-vychodni-predmesti-plzenecka/26894172
200,26906460,"Na úlehli, Praha 4 - Michle",CZ,50.046898999999996,14.463115,line,41.0,3890000.0,CZK,Prodej bytu 2+kk 41 m²,apartment,sale,https://www.sreality.cz/detail/prodej/byt/2+kk/praha-michle-na-ulehli/26906460
205,27930460,"Kojetická, Neratovice",CZ,50.252897316988,14.5196175798475,line,41.0,2257300.0,CZK,Prodej bytu 1+kk 41 m²,apartment,sale,https://www.sreality.cz/detail/prodej/byt/1+kk/neratovice-neratovice-kojeticka/27930460
206,28057436,"Bří. Čapků, Šumperk",CZ,49.961505700553104,16.962482065587302,line,59.0,1950000.0,CZK,Prodej bytu 2+1 59 m²,apartment,sale,https://www.sreality.cz/detail/prodej/byt/2+1/sumperk-sumperk-bri--capku/28057436
208,28532572,"Urbánkova, Praha 4 - Modřany",CZ,50.0022113366609,14.4282600660399,line,81.0,5300000.0,CZK,Prodej bytu 3+1 81 m²,apartment,sale,https://www.sreality.cz/detail/prodej/byt/3+1/praha-modrany-urbankova/28532572
209,28540764,"U Archivu, Beroun - Beroun-Město",CZ,49.958437582561906,14.0677020515397,point,66.0,3999000.0,CZK,Prodej bytu 2+kk 66 m²,apartment,sale,https://www.sreality.cz/detail/prodej/byt/2+kk/beroun-beroun-mesto-u-archivu/28540764
212,28868444,"Záhřebská, Praha 2 - Vinohrady",CZ,50.073287742725,14.4397895674928,point,28.0,5780000.0,CZK,Prodej bytu 1+kk 28 m²,apartment,sale,https://www.sreality.cz/detail/prodej/byt/1+kk/praha-vinohrady-zahrebska/28868444
214,29351772,"Čechova, Plzeň - Jižní Předměstí",CZ,49.7324543383266,13.3736073015222,line,49.0,2890000.0,CZK,Prodej bytu 2+kk 49 m²,apartment,sale,https://www.sreality.cz/detail/prodej/byt/2+kk/plzen-jizni-predmesti-cechova/29351772
216,29478492,"Čerpadlová, Praha 9 - Vysočany",CZ,50.10077800000001,14.506194,point,76.0,7100000.0,CZK,Prodej bytu 3+kk 76 m²,apartment,sale,https://www.sreality.cz/detail/prodej/byt/3+kk/praha-vysocany-cerpadlova/29478492
217,29777756,"Arm. gen. L. Svobody, Studénka - Butovice",CZ,49.7166317720158,18.0569014322552,line,78.0,1450000.0,CZK,Prodej bytu 3+1 78 m²,apartment,sale,https://www.sreality.cz/detail/prodej/byt/3+1/studenka-butovice-arm--gen--l--svobody/29777756
219,29974364,"Do zahrádek I, Praha",CZ,50.0562527435714,14.291478023804801,line,98.0,12485320.0,CZK,Prodej bytu 4+kk 98 m²,apartment,sale,https://www.sreality.cz/detail/prodej/byt/4+kk/praha--do-zahradek-i/29974364
220,30412636,"Olšová, Klášterec nad Ohří",CZ,50.390985716397,13.1788054681933,line,68.0,1360000.0,CZK,Prodej bytu 3+1 68 m²,apartment,sale,https://www.sreality.cz/detail/prodej/byt/3+1/klasterec-nad-ohri-klasterec-nad-ohri-olsova/30412636
225,31055452,"Olomouc, okres Olomouc",CZ,49.593868693598786,17.2508705732619,polygon,68.0,3600710.0,CZK,Prodej bytu 2+kk 68 m²,apartment,sale,https://www.sreality.cz/detail/prodej/byt/2+kk/olomouc--/31055452
226,31173724,"Sadová, Nový Bor",CZ,50.7549145568886,14.550288006952698,line,74.0,1810000.0,CZK,Prodej bytu 3+1 74 m²,apartment,sale,https://www.sreality.cz/detail/prodej/byt/3+1/novy-bor-novy-bor-sadova/31173724
227,31125340,"Na Šmukýřce, Praha - Košíře",CZ,50.0648029057179,14.3745778749546,line,85.0,9400000.0,CZK,Prodej bytu 3+1 85 m²,apartment,sale,https://www.sreality.cz/detail/prodej/byt/3+1/praha-kosire-na-smukyrce/31125340
229,31813468,"Kytlická, Praha 9 - Prosek",CZ,50.12598629865371,14.503263906445198,point,72.0,4650000.0,CZK,Prodej bytu 3+kk 72 m²,apartment,sale,https://www.sreality.cz/detail/prodej/byt/3+kk/praha-prosek-kytlicka/31813468
233,32431964,"Srbská, Ostrava - Výškovice",CZ,49.775924369487704,18.2249596435855,line,60.0,1280000.0,CZK,Prodej bytu 2+1 60 m²,apartment,sale,https://www.sreality.cz/detail/prodej/byt/2+1/ostrava-vyskovice-srbska/32431964
234,32010076,"Loudova, Olomouc - Povel",CZ,49.5699478068715,17.251505522684802,line,79.0,4073760.0,CZK,Prodej bytu 3+kk 79 m²,apartment,sale,https://www.sreality.cz/detail/prodej/byt/3+kk/olomouc-povel-loudova/32010076
238,32656988,"Wassermannova, Praha - Hlubočepy",CZ,50.0285651348619,14.366739281582,line,44.0,5263146.0,CZK,Prodej bytu 2+kk 44 m²,apartment,sale,https://www.sreality.cz/detail/prodej/byt/2+kk/praha-hlubocepy-wassermannova/32656988
239,33496924,"Přádova, Praha 8 - Libeň",CZ,50.120018,14.446028,point,74.0,8650000.0,CZK,Prodej bytu 3+kk 74 m²,apartment,sale,https://www.sreality.cz/detail/prodej/byt/3+kk/praha-liben-pradova/33496924
240,32939100,Praha 6 - Veleslavín,CZ,50.093390617254,14.3538115132635,polygon,74.0,6990000.0,CZK,Prodej bytu 3+1 74 m²,apartment,sale,https://www.sreality.cz/detail/prodej/byt/3+1/praha-veleslavin-/32939100
243,34561884,"Polaneckého, Praha 9 - Kbely",CZ,50.132557,14.537020000000002,point,96.0,9499000.0,CZK,Prodej bytu 4+kk 96 m²,apartment,sale,https://www.sreality.cz/detail/prodej/byt/4+kk/praha-kbely-polaneckeho/34561884
246,34856540,"Ostrovského, Praha 5 - Smíchov",CZ,50.0680150927881,14.398651246663801,point,110.0,14500000.0,CZK,Prodej bytu 3+kk 110 m²,apartment,sale,https://www.sreality.cz/detail/prodej/byt/3+kk/praha-smichov-ostrovskeho/34856540
248,35270492,"Revoluční, Odolena Voda",CZ,50.2291410118041,14.4106248573393,point,91.0,5580000.0,CZK,Prodej bytu 3+kk 91 m² (Podkrovní),apartment,sale,https://www.sreality.cz/detail/prodej/byt/3+kk/odolena-voda-odolena-voda-revolucni/35270492
249,35437660,"Krásova, Praha 3 - Žižkov",CZ,50.083677619111604,14.4469213705422,line,82.0,9900000.0,CZK,Prodej bytu 3+1 82 m²,apartment,sale,https://www.sreality.cz/detail/prodej/byt/3+1/praha-zizkov-krasova/35437660
251,35466844,"Kolbenova, Praha",CZ,50.1106023994707,14.517480313799698,line,126.0,14531347.0,CZK,Prodej bytu 5+kk 126 m²,apartment,sale,https://www.sreality.cz/detail/prodej/byt/5+kk/praha--kolbenova/35466844
252,35749724,"Družební, Olomouc - Nové Sady",CZ,49.57552427091071,17.2493736630341,line,50.0,3100000.0,CZK,Prodej bytu 2+kk 50 m²,apartment,sale,https://www.sreality.cz/detail/prodej/byt/2+kk/olomouc-nove-sady-druzebni/35749724
260,36953692,Praha 1 - Nové Město,CZ,50.073001861571996,14.430800437927001,point,70.0,8736250.0,CZK,Prodej bytu 3+kk 70 m²,apartment,sale,https://www.sreality.cz/detail/prodej/byt/3+kk/praha-nove-mesto-/36953692
261,36929372,"Doudlevecká, Plzeň - Jižní Předměstí",CZ,49.734603896248295,13.37803151853,line,39.0,2790000.0,CZK,Prodej bytu 2+kk 39 m²,apartment,sale,https://www.sreality.cz/detail/prodej/byt/2+kk/plzen-jizni-predmesti-doudlevecka/36929372
262,37002332,"Pšenčíkova, Praha - Kamýk",CZ,50.015006655584095,14.4453956290013,line,45.0,4100000.0,CZK,Prodej bytu 2+kk 45 m²,apartment,sale,https://www.sreality.cz/detail/prodej/byt/2+kk/praha-kamyk-psencikova/37002332
265,37203804,"Františka Jansy, Praha - Dolní Měcholupy",CZ,50.065,14.5527,line,93.0,2850000.0,CZK,Prodej bytu 3+kk 93 m²,apartment,sale,https://www.sreality.cz/detail/prodej/byt/3+kk/praha-dolni-mecholupy-frantiska-jansy/37203804
266,37281372,"Krále Jiřího, Karlovy Vary",CZ,50.226841305429296,12.8745113545344,point,90.0,5500000.0,CZK,Prodej bytu 3+1 90 m²,apartment,sale,https://www.sreality.cz/detail/prodej/byt/3+1/karlovy-vary-karlovy-vary-krale-jiriho/37281372
267,37088860,"Prostějov, okres Prostějov",CZ,49.4718783647997,17.111839696126403,polygon,76.0,1800000.0,CZK,Prodej bytu atypické 76 m² (Mezonet),apartment,sale,https://www.sreality.cz/detail/prodej/byt/atypicky/prostejov--/37088860
270,38211420,"V Hůrkách, Praha 5 - Stodůlky",CZ,50.0485281026,14.3410225481,point,47.0,4857156.0,CZK,Prodej bytu 2+kk 47 m²,apartment,sale,https://www.sreality.cz/detail/prodej/byt/2+kk/praha-stodulky-v-hurkach/38211420
272,38633308,"Na Petřinách, Praha 6 - Břevnov",CZ,50.0869457745123,14.3406521274924,point,52.0,7998600.0,CZK,Prodej bytu 2+kk 52 m²,apartment,sale,https://www.sreality.cz/detail/prodej/byt/2+kk/praha-brevnov-na-petrinach/38633308
275,39280220,"Gerasimovova, Ostrava - Zábřeh",CZ,49.7901794283264,18.2331076774,line,54.0,1695000.0,CZK,Prodej bytu 2+1 54 m²,apartment,sale,https://www.sreality.cz/detail/prodej/byt/2+1/ostrava-zabreh-gerasimovova/39280220
276,39997276,"Dubaj (دبي), Spojené arabské emiráty",CZ,25.204739618969,55.270706433359095,point,125.0,8990000.0,CZK,Prodej bytu 3+1 125 m²,apartment,sale,https://www.sreality.cz/detail/prodej/byt/3+1/dubaj-----------/39997276
279,40116060,"Dukelská, Cheb",CZ,50.07583784820189,12.374974475116,point,44.0,1799000.0,CZK,Prodej bytu 1+kk 44 m²,apartment,sale,https://www.sreality.cz/detail/prodej/byt/1+kk/cheb-cheb-dukelska/40116060
280,38895452,"Třeboň, okres Jindřichův Hradec",CZ,49.0036377757959,14.7706494835006,polygon,105.0,4300000.0,CZK,Prodej bytu 4+kk 105 m²,apartment,sale,https://www.sreality.cz/detail/prodej/byt/4+kk/trebon--/38895452
282,40644188,"Bělohorská, Praha 6 - Břevnov",CZ,50.084072797515404,14.371042086795098,point,96.0,9199000.0,CZK,Prodej bytu 3+1 96 m²,apartment,sale,https://www.sreality.cz/detail/prodej/byt/3+1/praha-brevnov-belohorska/40644188
283,40566364,"Pastviska, Zlín - Mladcová",CZ,49.2437758083959,17.6502375926276,point,77.0,4500000.0,CZK,Prodej bytu 3+kk 77 m²,apartment,sale,https://www.sreality.cz/detail/prodej/byt/3+kk/zlin-mladcova-pastviska/40566364
285,40775260,"U Plynárny, Praha 4 - Michle",CZ,50.0562319813728,14.4648223197386,point,37.0,3953810.0,CZK,Prodej bytu 1+kk 37 m²,apartment,sale,https://www.sreality.cz/detail/prodej/byt/1+kk/praha-michle-u-plynarny/40775260
288,41000796,"Miličín, okres Benešov",CZ,49.57068903660979,14.6614050963903,polygon,89.0,2080000.0,CZK,Prodej bytu 2+1 89 m²,apartment,sale,https://www.sreality.cz/detail/prodej/byt/2+1/milicin-milicin-/41000796
289,41520220,"Čapkova, Říčany",CZ,49.9928408333,14.681258333299999,point,44.0,3490000.0,CZK,Prodej bytu 2+kk 44 m²,apartment,sale,https://www.sreality.cz/detail/prodej/byt/2+kk/ricany-ricany-capkova/41520220
292,41397340,"U Nové školy, Ostrava - Hrabůvka",CZ,49.790532329018795,18.256022509845398,line,69.0,1950000.0,CZK,Prodej bytu 3+1 69 m²,apartment,sale,https://www.sreality.cz/detail/prodej/byt/3+1/ostrava-hrabuvka-u-nove-skoly/41397340
296,42090332,"Španielova, Praha 6 - Řepy",CZ,50.0688543,14.304652599999999,point,96.0,3500000.0,CZK,Prodej bytu 4+1 96 m²,apartment,sale,https://www.sreality.cz/detail/prodej/byt/4+1/praha-repy-spanielova/42090332
298,42200668,"Táborská, Pelhřimov",CZ,49.437923284538,15.2073560308691,line,34.0,1748191.0,CZK,Prodej bytu 1+kk 34 m²,apartment,sale,https://www.sreality.cz/detail/prodej/byt/1+kk/pelhrimov-pelhrimov-taborska/42200668
301,42516060,"Lorencova, Zlín",CZ,49.2264078963404,17.6725968892044,line,44.0,2606661.0,CZK,Prodej bytu 1+kk 44 m²,apartment,sale,https://www.sreality.cz/detail/prodej/byt/1+kk/zlin-zlin-lorencova/42516060
303,42946396,"Kolínská, Česká Lípa",CZ,50.6925455000725,14.5520481400563,line,90.0,2390000.0,CZK,Prodej bytu 4+1 90 m²,apartment,sale,https://www.sreality.cz/detail/prodej/byt/4+1/ceska-lipa-ceska-lipa-kolinska/42946396
305,43323228,"Třešňová, Praha 9",CZ,50.093779,14.532635999999998,point,83.0,8598000.0,CZK,Prodej bytu 3+kk 83 m²,apartment,sale,https://www.sreality.cz/detail/prodej/byt/3+kk/praha--tresnova/43323228
307,43855452,"Podbělohorská, Praha 5 - Smíchov",CZ,50.075797177908896,14.368701903426,point,37.0,5497098.0,CZK,Prodej bytu 1+kk 37 m²,apartment,sale,https://www.sreality.cz/detail/prodej/byt/1+kk/praha-smichov-podbelohorska/43855452
311,44134236,"Zlínská, Liberec - Liberec III-Jeřáb",CZ,50.7617687473176,15.039382107772601,point,125.0,2390000.0,CZK,Prodej bytu 3+1 125 m²,apartment,sale,https://www.sreality.cz/detail/prodej/byt/3+1/liberec-liberec-iii-jerab-zlinska/44134236
314,44826460,"Staškova, Havlíčkův Brod",CZ,49.605276057389,15.591017560341301,point,57.0,1890000.0,CZK,Prodej bytu 2+1 57 m²,apartment,sale,https://www.sreality.cz/detail/prodej/byt/2+1/havlickuv-brod-havlickuv-brod-staskova/44826460
315,44866652,"Za Obchody, Neratovice",CZ,50.2557605279317,14.5151586798307,line,63.0,3200000.0,CZK,Prodej bytu 2+1 63 m²,apartment,sale,https://www.sreality.cz/detail/prodej/byt/2+1/neratovice-neratovice-za-obchody/44866652
318,44936796,"Na Lysinách, Praha 4 - Hodkovičky",CZ,50.0222038889,14.4121819444,line,86.0,10338000.0,CZK,Prodej bytu 3+kk 86 m²,apartment,sale,https://www.sreality.cz/detail/prodej/byt/3+kk/praha-hodkovicky-na-lysinach/44936796
323,45563484,"Gajdošova, Brno - Židenice",CZ,49.197232503399,16.646043196733903,line,46.0,4204400.0,CZK,Prodej bytu 1+kk 46 m²,apartment,sale,https://www.sreality.cz/detail/prodej/byt/1+kk/brno-zidenice-gajdosova/45563484
327,45686620,"Viklefova, Praha 3 - Žižkov",CZ,50.0903325475806,14.4739474391765,line,48.0,5499000.0,CZK,Prodej bytu 1+1 48 m²,apartment,sale,https://www.sreality.cz/detail/prodej/byt/1+1/praha-zizkov-viklefova/45686620
330,45850204,"Olomouc, okres Olomouc",CZ,49.593868693598786,17.2508705732619,polygon,79.0,4080710.0,CZK,Prodej bytu 2+kk 79 m²,apartment,sale,https://www.sreality.cz/detail/prodej/byt/2+kk/olomouc--/45850204
331,46505052,"Jeronýmova, Praha 3 - Žižkov",CZ,50.086358146884,14.448330037876598,line,65.0,5800000.0,CZK,Prodej bytu 2+kk 65 m²,apartment,sale,https://www.sreality.cz/detail/prodej/byt/2+kk/praha-zizkov-jeronymova/46505052
333,46583388,"Nad lomem, Praha 4 - Braník",CZ,50.0436668395996,14.4184122085571,point,113.0,17490000.0,CZK,Prodej bytu 4+kk 113 m²,apartment,sale,https://www.sreality.cz/detail/prodej/byt/4+kk/praha-branik-nad-lomem/46583388
334,46944092,"Zákostelní, Praha 9 - Vysočany",CZ,50.109853178908786,14.505272494520199,point,61.0,4784000.0,CZK,Prodej bytu 2+kk 61 m²,apartment,sale,https://www.sreality.cz/detail/prodej/byt/2+kk/praha-vysocany-zakostelni/46944092
337,47529820,"Ostrovského, Praha 5 - Smíchov",CZ,50.06749379475021,14.3966950403701,point,53.0,4760000.0,CZK,Prodej bytu 2+kk 53 m² (Podkrovní),apartment,sale,https://www.sreality.cz/detail/prodej/byt/2+kk/praha-smichov-ostrovskeho/47529820
339,47304284,"Čerpadlová, Praha 9 - Vysočany",CZ,50.10077800000001,14.506194,point,58.0,5510000.0,CZK,Prodej bytu 2+kk 58 m²,apartment,sale,https://www.sreality.cz/detail/prodej/byt/2+kk/praha-vysocany-cerpadlova/47304284
340,47902556,"Bohosudovská, Teplice - Trnovany",CZ,50.6605720832084,13.8509545071576,line,72.0,2000000.0,CZK,Prodej bytu 4+1 72 m²,apartment,sale,https://www.sreality.cz/detail/prodej/byt/4+1/teplice-trnovany-bohosudovska/47902556
343,48143452,"Tomkova, Olomouc - Hejčín",CZ,49.604771327988004,17.2403091306417,line,57.0,3845313.0,CZK,Prodej bytu 2+1 57 m²,apartment,sale,https://www.sreality.cz/detail/prodej/byt/2+1/olomouc-hejcin-tomkova/48143452
344,48770908,"Na vrcholu, Praha 3 - Žižkov",CZ,50.094387,14.489706,line,54.0,4500000.0,CZK,Prodej bytu 2+1 54 m²,apartment,sale,https://www.sreality.cz/detail/prodej/byt/2+1/praha-zizkov-na-vrcholu/48770908
349,49549148,"Lesní, Heřmanova Huť - Vlkýš I",CZ,49.717861386645204,13.084246075516901,line,97.0,3452557.0,CZK,Prodej bytu 2+kk 97 m²,apartment,sale,https://www.sreality.cz/detail/prodej/byt/2+kk/hermanova-hut-vlkys-i-lesni/49549148
351,49946204,"Sokolovská, Praha 9 - Libeň",CZ,50.0992821048,14.4688838805,line,50.0,4699999.0,CZK,Prodej bytu 2+1 50 m²,apartment,sale,https://www.sreality.cz/detail/prodej/byt/2+1/praha-liben-sokolovska/49946204
352,50122588,"Na Zámyšli, Praha 5 - Košíře",CZ,50.0695237977622,14.374152355685695,line,53.0,6370000.0,CZK,Prodej bytu 3+kk 53 m²,apartment,sale,https://www.sreality.cz/detail/prodej/byt/3+kk/praha-kosire-na-zamysli/50122588
353,50081372,"Karla Čapka, Teplice",CZ,50.6457565531872,13.8357704597513,line,81.0,1300000.0,CZK,Prodej bytu 3+1 81 m²,apartment,sale,https://www.sreality.cz/detail/prodej/byt/3+1/teplice-teplice-karla-capka/50081372
354,50179164,"Šaripova, Uherský Brod",CZ,49.02685186077821,17.657032287678106,line,39.0,1628000.0,CZK,Prodej bytu 1+1 39 m²,apartment,sale,https://www.sreality.cz/detail/prodej/byt/1+1/uhersky-brod-uhersky-brod-saripova/50179164
357,50712156,"Pelíškova 2003/15, Slovensko",CZ,48.846393393999996,17.237051913800002,point,74.0,2168529.0,CZK,Prodej bytu 3+1 74 m²,apartment,sale,https://www.sreality.cz/detail/prodej/byt/3+1/peliskova-2003-15--/50712156
364,51326556,"Zderazská, Praha 5 - Radotín",CZ,49.9784991536966,14.345500652800698,line,165.0,13990000.0,CZK,Prodej bytu 4+kk 165 m²,apartment,sale,https://www.sreality.cz/detail/prodej/byt/4+kk/praha-radotin-zderazska/51326556
368,52075612,"Václava Trojana, Praha 10 - Uhříněves",CZ,50.0317111549962,14.611665950647302,point,85.0,7290000.0,CZK,Prodej bytu 3+kk 85 m²,apartment,sale,https://www.sreality.cz/detail/prodej/byt/3+kk/praha-uhrineves-vaclava-trojana/52075612
370,52318044,"Petrohradská, Praha 10 - Vršovice",CZ,50.0682610904153,14.450835283817899,point,80.0,8968850.0,CZK,Prodej bytu 3+1 80 m²,apartment,sale,https://www.sreality.cz/detail/prodej/byt/3+1/praha-vrsovice-petrohradska/52318044
371,52199260,Praha 10 - Záběhlice,CZ,50.05754000066361,14.5024970371158,polygon,54.0,4600000.0,CZK,Prodej bytu 2+1 54 m²,apartment,sale,https://www.sreality.cz/detail/prodej/byt/2+1/praha-zabehlice-/52199260
373,52514652,"Jana Zajíce, Praha 7 - Bubeneč",CZ,50.100683705200005,14.4173800856,point,60.0,7990000.0,CZK,Prodej bytu 2+kk 60 m²,apartment,sale,https://www.sreality.cz/detail/prodej/byt/2+kk/praha-bubenec-jana-zajice/52514652
374,52416092,"Chebská, Karlovy Vary - Dvory",CZ,50.22612771830861,12.819788241966698,line,84.0,1590000.0,CZK,Prodej bytu 3+1 84 m²,apartment,sale,https://www.sreality.cz/detail/prodej/byt/3+1/karlovy-vary-dvory-chebska/52416092
375,52371292,"Vítězná, Karlovy Vary",CZ,50.235804755487,12.880457395504902,line,74.0,2590000.0,CZK,Prodej bytu 3+1 74 m²,apartment,sale,https://www.sreality.cz/detail/prodej/byt/3+1/karlovy-vary-karlovy-vary-vitezna/52371292
376,52842076,"Třebízského, Slaný",CZ,50.232307399999996,14.082638699999999,point,111.0,4756333.0,CZK,Prodej bytu 3+kk 111 m²,apartment,sale,https://www.sreality.cz/detail/prodej/byt/3+kk/slany-slany-trebizskeho/52842076
377,52903516,"Masarykovo nábřeží, Praha - Nové Město",CZ,50.079520188624706,14.4139836133466,line,112.0,27165300.0,CZK,Prodej bytu 3+kk 112 m²,apartment,sale,https://www.sreality.cz/detail/prodej/byt/3+kk/praha-nove-mesto-masarykovo-nabrezi/52903516
378,53182300,"Karlova, Praha 1 - Staré Město",CZ,50.086038103599996,14.4183599638,point,79.0,19092300.0,CZK,Prodej bytu 2+kk 79 m²,apartment,sale,https://www.sreality.cz/detail/prodej/byt/2+kk/praha-stare-mesto-karlova/53182300
380,53448284,"Raisova, Karlovy Vary",CZ,50.2226917226626,12.8885669086696,line,90.0,4879800.0,CZK,Prodej bytu 3+1 90 m²,apartment,sale,https://www.sreality.cz/detail/prodej/byt/3+1/karlovy-vary-karlovy-vary-raisova/53448284
384,54054492,"Opava, okres Opava",CZ,49.9306055,17.877936899999995,point,93.0,3990000.0,CZK,Prodej bytu 3+kk 93 m²,apartment,sale,https://www.sreality.cz/detail/prodej/byt/3+kk/opava--/54054492
386,54111324,"Kundratická, Chomutov",CZ,50.4757253523944,13.413396440632999,line,74.0,1278000.0,CZK,Prodej bytu 3+1 74 m²,apartment,sale,https://www.sreality.cz/detail/prodej/byt/3+1/chomutov-chomutov-kundraticka/54111324
389,53320796,"třída Osvobození, Příbram - Příbram VII",CZ,49.6787245278967,13.9985600775572,point,68.0,2500000.0,CZK,Prodej bytu 3+1 68 m²,apartment,sale,https://www.sreality.cz/detail/prodej/byt/3+1/pribram-pribram-vii-trida-osvobozeni/53320796
392,55471964,"Nádražní, Kralovice",CZ,49.987933932667104,13.4909409705883,line,71.0,2200000.0,CZK,Prodej bytu 3+1 71 m²,apartment,sale,https://www.sreality.cz/detail/prodej/byt/3+1/kralovice-kralovice-nadrazni/55471964
396,56201052,"Smrková, Kaplice",CZ,48.73331552613861,14.489794379054501,line,98.0,3900000.0,CZK,Prodej bytu 4+kk 98 m²,apartment,sale,https://www.sreality.cz/detail/prodej/byt/4+kk/kaplice-kaplice-smrkova/56201052
399,56475484,"Blanická, Praha 2 - Vinohrady",CZ,50.0782470001203,14.439844882407401,point,77.0,8500000.0,CZK,Prodej bytu 3+1 77 m²,apartment,sale,https://www.sreality.cz/detail/prodej/byt/3+1/praha-vinohrady-blanicka/56475484
405,57638748,"Nad úžlabinou, Praha 10 - Malešice",CZ,50.080628000000004,14.496476999999999,line,58.0,8990000.0,CZK,Prodej bytu 2+kk 58 m²,apartment,sale,https://www.sreality.cz/detail/prodej/byt/2+kk/praha-malesice-nad-uzlabinou/57638748
418,58904156,"Čerpadlová, Praha 9 - Vysočany",CZ,50.10077800000001,14.506194,point,56.0,4790000.0,CZK,Prodej bytu 2+kk 56 m²,apartment,sale,https://www.sreality.cz/detail/prodej/byt/2+kk/praha-vysocany-cerpadlova/58904156
421,59743324,"Příkop, Brno - Zábrdovice",CZ,49.19943655380361,16.6146447513168,line,63.0,5200000.0,CZK,Prodej bytu 2+1 63 m²,apartment,sale,https://www.sreality.cz/detail/prodej/byt/2+1/brno-zabrdovice-prikop/59743324
424,59280988,"Olomouc, okres Olomouc",CZ,49.593868693598786,17.2508705732619,polygon,78.0,3992280.0,CZK,Prodej bytu 2+kk 78 m²,apartment,sale,https://www.sreality.cz/detail/prodej/byt/2+kk/olomouc--/59280988
425,60018268,"Palackého, Přerov - Přerov I-Město",CZ,49.45320701795771,17.4482065640088,line,79.0,1950000.0,CZK,Prodej bytu 4+1 79 m²,apartment,sale,https://www.sreality.cz/detail/prodej/byt/4+1/prerov-prerov-i-mesto-palackeho/60018268
429,60763740,"U Plynárny, Praha 4 - Michle",CZ,50.0562319813728,14.4648223197386,point,37.0,3535319.0,CZK,Prodej bytu 1+kk 37 m²,apartment,sale,https://www.sreality.cz/detail/prodej/byt/1+kk/praha-michle-u-plynarny/60763740
434,61623900,"Wassermannova, Praha - Hlubočepy",CZ,50.0285651348619,14.366739281582,line,105.0,11788938.0,CZK,Prodej bytu 4+kk 105 m²,apartment,sale,https://www.sreality.cz/detail/prodej/byt/4+kk/praha-hlubocepy-wassermannova/61623900
436,61488988,"Rohanské nábřeží, Praha - Karlín",CZ,50.0953630082192,14.453579733564,line,30.0,4759000.0,CZK,Prodej bytu 1+kk 30 m²,apartment,sale,https://www.sreality.cz/detail/prodej/byt/1+kk/praha-karlin-rohanske-nabrezi/61488988
438,62582364,"Vřídelní, Karlovy Vary",CZ,50.2243011333889,12.884166833211601,point,76.0,3200000.0,CZK,Prodej bytu 3+1 76 m²,apartment,sale,https://www.sreality.cz/detail/prodej/byt/3+1/karlovy-vary-karlovy-vary-vridelni/62582364
439,62611292,"Struhlovsko, Hranice - Hranice I-Město",CZ,49.55583922502629,17.726956663791896,point,60.0,1880000.0,CZK,Prodej bytu 3+1 60 m²,apartment,sale,https://www.sreality.cz/detail/prodej/byt/3+1/hranice-hranice-i-mesto-struhlovsko/62611292
444,62623580,"Brno - Královo Pole, okres Brno-město",CZ,49.231350661099796,16.592524723343,polygon,46.0,3650000.0,CZK,Prodej bytu 2+kk 46 m²,apartment,sale,https://www.sreality.cz/detail/prodej/byt/2+kk/brno-kralovo-pole-/62623580
445,62717532,"Vinohradská, Praha 10 - Žižkov",CZ,50.079792,14.484128,point,111.0,12906800.0,CZK,Prodej bytu 4+kk 111 m²,apartment,sale,https://www.sreality.cz/detail/prodej/byt/4+kk/praha-zizkov-vinohradska/62717532
446,62750556,"Nad Tratí, Blovice",CZ,49.5764452778,13.5318138889,line,71.0,2700000.0,CZK,Prodej bytu 3+kk 71 m²,apartment,sale,https://www.sreality.cz/detail/prodej/byt/3+kk/blovice-blovice-nad-trati/62750556
449,63180636,"Hasova, Praha 4 - Modřany",CZ,50.012481689453104,14.4281702041626,point,65.0,4590000.0,CZK,Prodej bytu 3+1 65 m²,apartment,sale,https://www.sreality.cz/detail/prodej/byt/3+1/praha-modrany-hasova/63180636
450,63094620,"Erbenova, Praha 5 - Smíchov",CZ,50.073093,14.388993,point,215.0,32090000.0,CZK,Prodej bytu 4+kk 215 m² (Mezonet),apartment,sale,https://www.sreality.cz/detail/prodej/byt/4+kk/praha-smichov-erbenova/63094620
452,63417436,"Lubná, okres Rakovník",CZ,50.076923257035,13.700737009934599,polygon,41.0,1100000.0,CZK,Prodej bytu 1+1 41 m²,apartment,sale,https://www.sreality.cz/detail/prodej/byt/1+1/lubna-lubna-/63417436
453,63655772,"Kovařovicova, Praha 4 - Krč",CZ,50.0423393249512,14.4380197525024,point,69.0,7500000.0,CZK,Prodej bytu 4+kk 69 m²,apartment,sale,https://www.sreality.cz/detail/prodej/byt/4+kk/praha-krc-kovarovicova/63655772
454,63540316,"Čkalovova, Ostrava - Poruba",CZ,49.828779173724,18.179183841064397,line,56.0,1540000.0,CZK,Prodej bytu 2+1 56 m²,apartment,sale,https://www.sreality.cz/detail/prodej/byt/2+1/ostrava-poruba-ckalovova/63540316
456,63814748,"Za Cukrovarem, Cerhenice",CZ,50.0731295246733,15.078805854361804,point,56.0,2671200.0,CZK,Prodej bytu 2+kk 56 m²,apartment,sale,https://www.sreality.cz/detail/prodej/byt/2+kk/cerhenice-cerhenice-za-cukrovarem/63814748
457,64081500,"Čerpadlová, Praha 9 - Vysočany",CZ,50.10077800000001,14.506194,point,62.0,5150000.0,CZK,Prodej bytu 2+kk 62 m²,apartment,sale,https://www.sreality.cz/detail/prodej/byt/2+kk/praha-vysocany-cerpadlova/64081500
464,65106268,"U Průhonu, Praha 7 - Holešovice",CZ,50.1058499761745,14.4445533640475,point,52.0,6875000.0,CZK,Prodej bytu 2+kk 52 m²,apartment,sale,https://www.sreality.cz/detail/prodej/byt/2+kk/praha-holesovice-u-pruhonu/65106268
465,64773980,"Prokopská, Praha 1 - Malá Strana",CZ,50.0868225,14.404152900000001,point,40.0,8400000.0,CZK,Prodej bytu 2+kk 40 m²,apartment,sale,https://www.sreality.cz/detail/prodej/byt/2+kk/praha-mala-strana-prokopska/64773980
475,66412380,"Bzenecká, Plzeň - Severní Předměstí",CZ,49.760311126709006,13.351940155029302,point,49.0,2499000.0,CZK,Prodej bytu 2+kk 49 m²,apartment,sale,https://www.sreality.cz/detail/prodej/byt/2+kk/plzen-severni-predmesti-bzenecka/66412380
476,66183004,"Moravská, Karlovy Vary",CZ,50.2218797037689,12.886955039793598,line,45.0,2700000.0,CZK,Prodej bytu 1+1 45 m²,apartment,sale,https://www.sreality.cz/detail/prodej/byt/1+1/karlovy-vary-karlovy-vary-moravska/66183004
477,66117212,"Horoměřice, okres Praha-západ",CZ,50.1317271022426,14.338785628657,polygon,48.0,4786415.0,CZK,Prodej bytu 2+kk 48 m²,apartment,sale,https://www.sreality.cz/detail/prodej/byt/2+kk/horomerice--/66117212
478,66486108,"Slunečná, Nupaky",CZ,49.9935727145838,14.5976205635997,point,64.0,4495000.0,CZK,Prodej bytu 2+1 64 m²,apartment,sale,https://www.sreality.cz/detail/prodej/byt/2+1/nupaky-nupaky-slunecna/66486108
482,66817116,Pelhřimov,CZ,49.431337345377294,15.2233571148194,polygon,66.0,2300000.0,CZK,Prodej bytu 3+1 66 m²,apartment,sale,https://www.sreality.cz/detail/prodej/byt/3+1/pelhrimov-pelhrimov-/66817116
486,67784540,"Husova, Mariánské Lázně",CZ,49.958654943789796,12.695407995973198,point,48.0,1400000.0,CZK,Prodej bytu 2+1 48 m²,apartment,sale,https://www.sreality.cz/detail/prodej/byt/2+1/marianske-lazne-marianske-lazne-husova/67784540
487,67817052,"Zvěřinova, Praha 3 - Strašnice",CZ,50.0849387454,14.4847094315,point,107.0,11700000.0,CZK,Prodej bytu 3+kk 107 m²,apartment,sale,https://www.sreality.cz/detail/prodej/byt/3+kk/praha-strasnice-zverinova/67817052
488,67776348,"Černého, Brno - Bystrc",CZ,49.215255160359604,16.524192720718602,line,32.0,2690000.0,CZK,Prodej bytu 1+1 32 m²,apartment,sale,https://www.sreality.cz/detail/prodej/byt/1+1/brno-bystrc-cerneho/67776348
494,68111964,"Spáčilova, Kroměříž",CZ,49.297883126808,17.403160416565303,line,93.0,2999000.0,CZK,Prodej bytu 4+1 93 m² (Mezonet),apartment,sale,https://www.sreality.cz/detail/prodej/byt/4+1/kromeriz-kromeriz-spacilova/68111964
497,68697692,"Na Skalce, Humpolec",CZ,49.5445358434914,15.350453331217999,line,64.0,2990000.0,CZK,Prodej bytu 2+kk 64 m²,apartment,sale,https://www.sreality.cz/detail/prodej/byt/2+kk/humpolec-humpolec-na-skalce/68697692
498,68341340,"Bařiny, Štramberk",CZ,49.5762160980995,18.127836638740803,line,150.0,1650000.0,CZK,Prodej bytu 3+1 150 m²,apartment,sale,https://www.sreality.cz/detail/prodej/byt/3+1/stramberk-stramberk-bariny/68341340
500,68775772,"Na Dědince, Praha 8 - Libeň",CZ,50.115304400174296,14.472168637352901,point,42.0,4160000.0,CZK,Prodej bytu 2+kk 42 m²,apartment,sale,https://www.sreality.cz/detail/prodej/byt/2+kk/praha-liben-na-dedince/68775772
502,68861788,"Vestec, okres Praha-západ",CZ,49.978951,14.501879999999998,point,89.0,7500000.0,CZK,Prodej bytu 3+kk 89 m²,apartment,sale,https://www.sreality.cz/detail/prodej/byt/3+kk/vestec-vestec-/68861788
504,69209948,"Naskové, Praha 5 - Košíře",CZ,50.061904999999996,14.361744,point,156.0,19174870.0,CZK,Prodej bytu 5+kk 156 m²,apartment,sale,https://www.sreality.cz/detail/prodej/byt/5+kk/praha-kosire-naskove/69209948
507,69324636,"Jana Škody, Ostrava - Dubina",CZ,49.772287570765,18.250617736200198,point,68.0,1999999.0,CZK,Prodej bytu 3+1 68 m²,apartment,sale,https://www.sreality.cz/detail/prodej/byt/3+1/ostrava-dubina-jana-skody/69324636
508,69508188,"Dvorecké náměstí, Praha - Podolí",CZ,50.0465337832117,14.4154188213504,line,70.0,7500000.0,CZK,Prodej bytu 3+kk 70 m²,apartment,sale,https://www.sreality.cz/detail/prodej/byt/3+kk/praha-podoli-dvorecke-namesti/69508188
510,69581916,"Finská, Prostějov",CZ,49.471839567441904,17.0884201172488,line,69.0,2200000.0,CZK,Prodej bytu 3+1 69 m²,apartment,sale,https://www.sreality.cz/detail/prodej/byt/3+1/prostejov-prostejov-finska/69581916
513,69709660,"Nádražní pěšina, Dvůr Králové nad Labem",CZ,50.4157307458,15.7960241774,point,43.0,2196900.0,CZK,Prodej bytu 2+kk 43 m²,apartment,sale,https://www.sreality.cz/detail/prodej/byt/2+kk/dvur-kralove-nad-labem-dvur-kralove-nad-labem-nadrazni-pesina/69709660
514,70147676,"Krymská, Praha 10 - Vršovice",CZ,50.07145250667861,14.449048103708696,line,98.0,9980000.0,CZK,Prodej bytu 4+1 98 m²,apartment,sale,https://www.sreality.cz/detail/prodej/byt/4+1/praha-vrsovice-krymska/70147676
515,70221404,"Ladova, Ústí nad Labem - Severní Terasa",CZ,50.6788469115777,14.0295728981205,point,64.0,1590000.0,CZK,Prodej bytu 2+1 64 m²,apartment,sale,https://www.sreality.cz/detail/prodej/byt/2+1/usti-nad-labem-severni-terasa-ladova/70221404
517,70790748,"Na Šibeníku, Olomouc - Nová Ulice",CZ,49.597289,17.236442,point,65.0,3427390.0,CZK,Prodej bytu 2+kk 65 m²,apartment,sale,https://www.sreality.cz/detail/prodej/byt/2+kk/olomouc-nova-ulice-na-sibeniku/70790748
518,70324060,"Pitterova, Praha 3 - Žižkov",CZ,50.084299414917794,14.466770347487302,line,86.0,11500000.0,CZK,Prodej bytu 3+kk 86 m²,apartment,sale,https://www.sreality.cz/detail/prodej/byt/3+kk/praha-zizkov-pitterova/70324060
520,70979420,"Limuzská, Praha 10 - Strašnice",CZ,50.0785496310358,14.508410035809,point,47.0,4895000.0,CZK,Prodej bytu 2+kk 47 m²,apartment,sale,https://www.sreality.cz/detail/prodej/byt/2+kk/praha-strasnice-limuzska/70979420
522,71368284,"U Plynárny, Praha 4 - Michle",CZ,50.0562319813728,14.4648223197386,point,56.0,5474259.0,CZK,Prodej bytu 2+kk 56 m²,apartment,sale,https://www.sreality.cz/detail/prodej/byt/2+kk/praha-michle-u-plynarny/71368284
523,71458652,"Mládežnická, Strakonice - Strakonice I",CZ,49.2604651020582,13.8950133873259,line,73.0,2300000.0,CZK,Prodej bytu 3+1 73 m²,apartment,sale,https://www.sreality.cz/detail/prodej/byt/3+1/strakonice-strakonice-i-mladeznicka/71458652
527,71147100,"Ždírec nad Doubravou, okres Havlíčkův Brod",CZ,49.695956737903614,15.813602050861,polygon,101.0,3101527.0,CZK,Prodej bytu 3+kk 101 m²,apartment,sale,https://www.sreality.cz/detail/prodej/byt/3+kk/zdirec-nad-doubravou--/71147100
528,72208220,"Pod průsekem, Praha 10 - Hostivař",CZ,50.05653746294129,14.5177565266414,point,108.0,9600000.0,CZK,Prodej bytu 2+kk 108 m²,apartment,sale,https://www.sreality.cz/detail/prodej/byt/2+kk/praha-hostivar-pod-prusekem/72208220
530,72662876,"Nádražní, Nová Role",CZ,50.2737894,12.785105499999998,point,56.0,1150000.0,CZK,Prodej bytu 2+1 56 m²,apartment,sale,https://www.sreality.cz/detail/prodej/byt/2+1/nova-role-nova-role-nadrazni/72662876
532,73055324,"U Kulturního domu, Sedlčany",CZ,49.661216942879,14.420703026363402,point,68.0,2100000.0,CZK,Prodej bytu 2+1 68 m²,apartment,sale,https://www.sreality.cz/detail/prodej/byt/2+1/sedlcany-sedlcany-u-kulturniho-domu/73055324
533,73236316,"Partyzánská, Odolena Voda",CZ,50.2287857747069,14.407860861521499,line,100.0,6690000.0,CZK,Prodej bytu 4+kk 100 m²,apartment,sale,https://www.sreality.cz/detail/prodej/byt/4+kk/odolena-voda-odolena-voda-partyzanska/73236316
536,74186588,"Vašátkova, Praha 9 - Černý Most",CZ,50.102782351861,14.569693436933699,point,81.0,5160000.0,CZK,Prodej bytu 3+1 81 m²,apartment,sale,https://www.sreality.cz/detail/prodej/byt/3+1/praha-cerny-most-vasatkova/74186588
537,74342236,"Hrabyně, okres Opava",CZ,49.8714845774323,18.0510194233095,point,42.0,1250000.0,CZK,Prodej bytu 1+kk 42 m²,apartment,sale,https://www.sreality.cz/detail/prodej/byt/1+kk/hrabyne-hrabyne-/74342236
539,74619996,"Bydžovského, Praha 10 - Malešice",CZ,50.0827120824621,14.503396736066305,point,58.0,5400000.0,CZK,Prodej bytu 3+kk 58 m²,apartment,sale,https://www.sreality.cz/detail/prodej/byt/3+kk/praha-malesice-bydzovskeho/74619996
540,74354524,"Jubilejní, Ostrava - Hrabůvka",CZ,49.79332202439011,18.256597478698,line,55.0,1777000.0,CZK,Prodej bytu 2+1 55 m²,apartment,sale,https://www.sreality.cz/detail/prodej/byt/2+1/ostrava-hrabuvka-jubilejni/74354524
545,74862428,"Dukelská, Milovice",CZ,50.228918798625706,14.8905431738538,line,62.0,3200000.0,CZK,Prodej bytu 2+1 62 m²,apartment,sale,https://www.sreality.cz/detail/prodej/byt/2+1/milovice-milovice-dukelska/74862428
548,75923036,"Letní, Brno - Židenice",CZ,49.19244783,16.6354037864,point,23.0,1999000.0,CZK,Prodej bytu 1+kk 23 m²,apartment,sale,https://www.sreality.cz/detail/prodej/byt/1+kk/brno-zidenice-letni/75923036
550,76037980,"Nová, Ostrava - Zábřeh",CZ,49.810455065385284,18.2394093548871,line,82.0,2650000.0,CZK,Prodej bytu 3+1 82 m²,apartment,sale,https://www.sreality.cz/detail/prodej/byt/3+1/ostrava-zabreh-nova/76037980
556,76361308,"K Meteoru, Hradec Králové - Svobodné Dvory",CZ,50.2236616947669,15.784291268243699,line,66.0,3610000.0,CZK,Prodej bytu 2+kk 66 m²,apartment,sale,https://www.sreality.cz/detail/prodej/byt/2+kk/hradec-kralove-svobodne-dvory-k-meteoru/76361308
559,76921948,"Senohrabská, Praha 4 - Záběhlice",CZ,50.045567897816895,14.4884461740495,line,53.0,4480000.0,CZK,Prodej bytu 2+kk 53 m²,apartment,sale,https://www.sreality.cz/detail/prodej/byt/2+kk/praha-zabehlice-senohrabska/76921948
560,76808028,"Štěpánská, Praha 1 - Nové Město",CZ,50.078698383529606,14.425351627647801,line,26.0,5600000.0,CZK,Prodej bytu 1+kk 26 m²,apartment,sale,https://www.sreality.cz/detail/prodej/byt/1+kk/praha-nove-mesto-stepanska/76808028
562,76935004,"Międzyzdroje, Polsko",CZ,53.9282744835912,14.448902932177804,point,35.0,3828827.0,CZK,Prodej bytu 1+kk 35 m²,apartment,sale,https://www.sreality.cz/detail/prodej/byt/1+kk/miedzyzdroje--/76935004
564,77487708,"Dlouhá, Cheb",CZ,50.078619440064,12.367952925516699,line,45.0,1490000.0,CZK,Prodej bytu 1+kk 45 m²,apartment,sale,https://www.sreality.cz/detail/prodej/byt/1+kk/cheb-cheb-dlouha/77487708
565,77499996,"Plzeňská, Praha 5 - Košíře",CZ,50.0718307495117,14.387700080871598,point,30.0,3490000.0,CZK,Prodej bytu 1+kk 30 m² (Podkrovní),apartment,sale,https://www.sreality.cz/detail/prodej/byt/1+kk/praha-kosire-plzenska/77499996
568,77569116,"Tyršova, Zlín - Malenovice",CZ,49.20272166216972,17.5805817365497,line,53.0,2299000.0,CZK,Prodej bytu 2+1 53 m²,apartment,sale,https://www.sreality.cz/detail/prodej/byt/2+1/zlin-malenovice-tyrsova/77569116
569,77839452,"Stavbařů, Cheb",CZ,50.075822624656,12.3577313855895,line,60.0,1650000.0,CZK,Prodej bytu 2+1 60 m²,apartment,sale,https://www.sreality.cz/detail/prodej/byt/2+1/cheb-cheb-stavbaru/77839452
570,78008156,"Slepá, Milovice - Mladá",CZ,50.2274775557335,14.858625501061802,point,53.0,2670000.0,CZK,Prodej bytu 2+kk 53 m²,apartment,sale,https://www.sreality.cz/detail/prodej/byt/2+kk/milovice-mlada-slepa/78008156
571,78048860,"Lomnická, Kunice - Dolní Lomnice",CZ,49.91430686819999,14.6829025742,point,59.0,4350000.0,CZK,Prodej bytu 2+kk 59 m²,apartment,sale,https://www.sreality.cz/detail/prodej/byt/2+kk/kunice-dolni-lomnice-lomnicka/78048860
572,78176092,"Volduchy, okres Rokycany",CZ,49.77239027777001,13.63240888888,point,90.0,2900000.0,CZK,Prodej bytu 3+1 90 m²,apartment,sale,https://www.sreality.cz/detail/prodej/byt/3+1/volduchy-volduchy-/78176092
573,78278492,"Jiráskova, Rychnov nad Kněžnou",CZ,50.168897597299996,16.2691690162,point,60.0,1350000.0,CZK,Prodej bytu 2+1 60 m²,apartment,sale,https://www.sreality.cz/detail/prodej/byt/2+1/rychnov-nad-kneznou-rychnov-nad-kneznou-jiraskova/78278492
574,78413660,"Sídl. Olšava, Uherský Brod",CZ,49.012585000685995,17.648688073473497,line,72.0,2695000.0,CZK,Prodej bytu 3+1 72 m²,apartment,sale,https://www.sreality.cz/detail/prodej/byt/3+1/uhersky-brod-uhersky-brod-sidl--olsava/78413660
576,78405468,"Šumavská, Karlovy Vary",CZ,50.2266513475109,12.8527272380136,line,100.0,5096185.0,CZK,Prodej bytu 3+kk 100 m²,apartment,sale,https://www.sreality.cz/detail/prodej/byt/3+kk/karlovy-vary-karlovy-vary-sumavska/78405468
578,78564956,"Brodská, Žďár nad Sázavou - Žďár nad Sázavou 3",CZ,49.56478241199861,15.928403365316699,line,51.0,2130000.0,CZK,Prodej bytu 2+1 51 m²,apartment,sale,https://www.sreality.cz/detail/prodej/byt/2+1/zdar-nad-sazavou-zdar-nad-sazavou-3-brodska/78564956
580,78761564,"Poděbradská, Karlovy Vary",CZ,50.2266923812025,12.876086142686901,line,127.0,9488500.0,CZK,Prodej bytu 2+1 127 m²,apartment,sale,https://www.sreality.cz/detail/prodej/byt/2+1/karlovy-vary-karlovy-vary-podebradska/78761564
581,78770012,"Dienzenhoferovy sady, Praha 5 - Smíchov",CZ,50.075578713599995,14.408160619,point,115.0,12900000.0,CZK,Prodej bytu 3+1 115 m²,apartment,sale,https://www.sreality.cz/detail/prodej/byt/3+1/praha-smichov-dienzenhoferovy-sady/78770012
583,78716764,"Mistřínská, Praha 5 - Zličín",CZ,50.062801244174004,14.2813636098215,line,117.0,11800000.0,CZK,Prodej bytu 4+kk 117 m²,apartment,sale,https://www.sreality.cz/detail/prodej/byt/4+kk/praha-zlicin-mistrinska/78716764
588,78855772,"Rybnická, Kaznějov",CZ,49.895681641811,13.3800749624769,line,29.0,1387800.0,CZK,Prodej bytu 1+kk 29 m²,apartment,sale,https://www.sreality.cz/detail/prodej/byt/1+kk/kaznejov-kaznejov-rybnicka/78855772
590,79208284,"V Hůrkách, Praha 5 - Stodůlky",CZ,50.0485281026,14.3410225481,point,36.0,3440352.0,CZK,Prodej bytu 1+kk 36 m²,apartment,sale,https://www.sreality.cz/detail/prodej/byt/1+kk/praha-stodulky-v-hurkach/79208284
592,79404124,"Nechvílova, Praha 4 - Chodov",CZ,50.0229504827011,14.496505741351099,line,49.0,4000000.0,CZK,Prodej bytu 2+kk 49 m²,apartment,sale,https://www.sreality.cz/detail/prodej/byt/2+kk/praha-chodov-nechvilova/79404124
594,80240476,"Norská, Kladno - Kročehlavy",CZ,50.128597320179395,14.122647147587399,line,54.0,3490000.0,CZK,Prodej bytu 3+1 54 m²,apartment,sale,https://www.sreality.cz/detail/prodej/byt/3+1/kladno-krocehlavy-norska/80240476
596,79604828,"Neratovice, okres Mělník",CZ,50.2592585091158,14.517594458142199,polygon,171.0,5590000.0,CZK,Prodej bytu 3+1 171 m²,apartment,sale,https://www.sreality.cz/detail/prodej/byt/3+1/neratovice--/79604828
602,81124956,"K Beranovu, Praha 8 - Dolní Chabry",CZ,50.140356,14.448518,point,57.0,6050000.0,CZK,Prodej bytu 2+kk 57 m²,apartment,sale,https://www.sreality.cz/detail/prodej/byt/2+kk/praha-dolni-chabry-k-beranovu/81124956
603,80969564,"Na Petřinách, Praha 6 - Břevnov",CZ,50.0869457745123,14.3406521274924,point,98.0,16956000.0,CZK,Prodej bytu 4+kk 98 m²,apartment,sale,https://www.sreality.cz/detail/prodej/byt/4+kk/praha-brevnov-na-petrinach/80969564
604,81272412,"Smetanova, Tanvald - Šumburk nad Desnou",CZ,50.7405947918501,15.311349599363401,point,75.0,1845000.0,CZK,Prodej bytu 3+1 75 m²,apartment,sale,https://www.sreality.cz/detail/prodej/byt/3+1/tanvald-sumburk-nad-desnou-smetanova/81272412
606,81439836,"Ke Krči, Praha 4 - Braník",CZ,50.03723618857511,14.410672471583199,point,79.0,6400000.0,CZK,Prodej bytu 3+1 79 m²,apartment,sale,https://www.sreality.cz/detail/prodej/byt/3+1/praha-branik-ke-krci/81439836
607,81383260,"Bezručova, Jeseník",CZ,50.2358596272719,17.2064556694439,line,75.0,1550000.0,CZK,Prodej bytu 3+1 75 m²,apartment,sale,https://www.sreality.cz/detail/prodej/byt/3+1/jesenik-jesenik-bezrucova/81383260
608,81297244,"Na Dračkách, Praha 6",CZ,50.0942311,14.3673158,point,89.0,11903880.0,CZK,Prodej bytu 3+kk 89 m²,apartment,sale,https://www.sreality.cz/detail/prodej/byt/3+kk/praha-praha-6-na-drackach/81297244
610,81284700,"Na Návsi, Praha 10 - Dolní Měcholupy",CZ,50.0553398132324,14.562350273132301,point,130.0,11400000.0,CZK,Prodej bytu 5+kk 130 m² (Mezonet),apartment,sale,https://www.sreality.cz/detail/prodej/byt/5+kk/praha-dolni-mecholupy-na-navsi/81284700
613,81792604,"Jateční, Praha 7 - Holešovice",CZ,50.1006972,14.448393900000001,point,90.0,9550000.0,CZK,Prodej bytu 3+1 90 m²,apartment,sale,https://www.sreality.cz/detail/prodej/byt/3+1/praha-holesovice-jatecni/81792604
615,81788508,"Schnirchova, Praha 7 - Holešovice",CZ,50.1027946462942,14.4349725148585,line,98.0,10500000.0,CZK,Prodej bytu 4+1 98 m²,apartment,sale,https://www.sreality.cz/detail/prodej/byt/4+1/praha-holesovice-schnirchova/81788508
619,82329180,"Benalmádena, Španělsko",CZ,36.59663,-4.528074,point,32.0,2494120.0,CZK,Prodej bytu 1+kk 32 m²,apartment,sale,https://www.sreality.cz/detail/prodej/byt/1+kk/benalmadena--/82329180
623,82251612,"Chvalovická, Pečky",CZ,50.0939496567664,15.026379739098802,line,65.0,2890000.0,CZK,Prodej bytu 2+kk 65 m²,apartment,sale,https://www.sreality.cz/detail/prodej/byt/2+kk/pecky-pecky-chvalovicka/82251612
624,82587228,"V Šáreckém údolí, Praha 6 - Dejvice",CZ,50.1139845129591,14.3735712891103,point,206.0,15613000.0,CZK,Prodej bytu 5+kk 206 m²,apartment,sale,https://www.sreality.cz/detail/prodej/byt/5+kk/praha-dejvice-v-sareckem-udoli/82587228
627,82673500,"U Pentlovky, Praha 8 - Troja",CZ,50.1278687,14.4072285,point,40.0,3360000.0,CZK,Prodej bytu 1+1 40 m²,apartment,sale,https://www.sreality.cz/detail/prodej/byt/1+1/praha-troja-u-pentlovky/82673500
628,82726748,"Petrohradská, Praha 10 - Vršovice",CZ,50.0682610904153,14.450835283817899,point,31.0,4007750.0,CZK,Prodej bytu 1+kk 31 m²,apartment,sale,https://www.sreality.cz/detail/prodej/byt/1+kk/praha-vrsovice-petrohradska/82726748
629,82800476,"Obránců míru, Most",CZ,50.4977958613511,13.6403346867956,line,73.0,1650000.0,CZK,Prodej bytu 3+1 73 m²,apartment,sale,https://www.sreality.cz/detail/prodej/byt/3+1/most-most-obrancu-miru/82800476
632,83591004,"Josefa Ševčíka, Most",CZ,50.4949782601645,13.658323814588899,point,96.0,1200000.0,CZK,Prodej bytu 4+1 96 m²,apartment,sale,https://www.sreality.cz/detail/prodej/byt/4+1/most-most-josefa-sevcika/83591004
634,83603292,"Rudná, Ostrava - Vítkovice",CZ,49.80661722222,18.26740888888,point,62.0,1250000.0,CZK,Prodej bytu 2+kk 62 m²,apartment,sale,https://www.sreality.cz/detail/prodej/byt/2+kk/ostrava-vitkovice-rudna/83603292
636,83717980,"Nádvorní, Liberec - Liberec VI-Rochlice",CZ,50.7492459,15.065837,point,83.0,4986000.0,CZK,Prodej bytu 4+kk 83 m²,apartment,sale,https://www.sreality.cz/detail/prodej/byt/4+kk/liberec-liberec-vi-rochlice-nadvorni/83717980
638,84209244,"F. X. Šaldy, Jihlava",CZ,49.405003210983715,15.563438338742499,line,54.0,2628000.0,CZK,Prodej bytu 2+kk 54 m²,apartment,sale,https://www.sreality.cz/detail/prodej/byt/2+kk/jihlava-jihlava-f--x--saldy/84209244
649,86617180,"Vinohradská, Praha 2 - Vinohrady",CZ,50.0776786804199,14.4371004104614,point,69.0,9990000.0,CZK,Prodej bytu 3+1 69 m²,apartment,sale,https://www.sreality.cz/detail/prodej/byt/3+1/praha-vinohrady-vinohradska/86617180
652,87576412,"Lipová, Plzeň - Severní Předměstí",CZ,49.754940032959006,13.381230354309098,point,37.0,1890000.0,CZK,Prodej bytu 1+1 37 m²,apartment,sale,https://www.sreality.cz/detail/prodej/byt/1+1/plzen-severni-predmesti-lipova/87576412
656,86744924,"Pardubice - Zelené Předměstí, okres Pardubice",CZ,50.0347738889824,15.7739858598435,polygon,92.0,4640000.0,CZK,Prodej bytu 3+kk 92 m²,apartment,sale,https://www.sreality.cz/detail/prodej/byt/3+kk/pardubice-zelene-predmesti-/86744924
658,87785308,"Kaznějov, okres Plzeň-sever",CZ,49.89313029453511,13.3829478973931,polygon,64.0,2200000.0,CZK,Prodej bytu 2+1 64 m²,apartment,sale,https://www.sreality.cz/detail/prodej/byt/2+1/kaznejov--/87785308
659,87965276,"Marbella, Španělsko",CZ,36.525152,-4.970657,point,95.0,12145280.0,CZK,Prodej bytu 3+kk 95 m²,apartment,sale,https://www.sreality.cz/detail/prodej/byt/3+kk/marbella--/87965276
661,88411996,"Truhlářská, Hradec Králové - Věkoše",CZ,50.2272415561391,15.8400001625251,point,62.0,2695000.0,CZK,Prodej bytu 2+1 62 m²,apartment,sale,https://www.sreality.cz/detail/prodej/byt/2+1/hradec-kralove-vekose-truhlarska/88411996
662,88382556,"Černodolská, Praha 9 - Dolní Počernice",CZ,50.08339162458471,14.575870228539,line,31.0,3046084.0,CZK,Prodej bytu 1+kk 31 m²,apartment,sale,https://www.sreality.cz/detail/prodej/byt/1+kk/praha-dolni-pocernice-cernodolska/88382556
663,88018780,"Křenická, Praha - Strašnice",CZ,50.06593700010549,14.510785271155699,line,57.0,4800000.0,CZK,Prodej bytu 2+1 57 m²,apartment,sale,https://www.sreality.cz/detail/prodej/byt/2+1/praha-strasnice-krenicka/88018780
665,88058972,"Demokratické mládeže, Pardubice - Zelené Předměstí",CZ,50.0208756804442,15.767336835957,line,76.0,3900000.0,CZK,Prodej bytu 3+kk 76 m²,apartment,sale,https://www.sreality.cz/detail/prodej/byt/3+kk/pardubice-zelene-predmesti-demokraticke-mladeze/88058972
666,88948316,"Pekařova, Praha 8 - Čimice",CZ,50.1337159244444,14.439580535832,point,68.0,8052600.0,CZK,Prodej bytu 3+kk 68 m²,apartment,sale,https://www.sreality.cz/detail/prodej/byt/3+kk/praha-cimice-pekarova/88948316
668,89173084,"Slapy, okres Praha-západ",CZ,49.798292670100004,14.4228611224,point,17.0,1250000.0,CZK,Prodej bytu 1+kk 17 m²,apartment,sale,https://www.sreality.cz/detail/prodej/byt/1+kk/slapy-slapy-/89173084
670,88498012,"Hostouň, okres Kladno",CZ,50.1143862241397,14.2012761583219,polygon,97.0,6789000.0,CZK,Prodej bytu 3+kk 97 m²,apartment,sale,https://www.sreality.cz/detail/prodej/byt/3+kk/hostoun--/88498012
671,89415516,"Hasičská, Ostrava - Hrabůvka",CZ,49.7921672388947,18.2624017842662,line,50.0,2081150.0,CZK,Prodej bytu 2+kk 50 m²,apartment,sale,https://www.sreality.cz/detail/prodej/byt/2+kk/ostrava-hrabuvka-hasicska/89415516
672,89005916,"Pražská, Benátky nad Jizerou - Benátky nad Jizerou II",CZ,50.2809182492265,14.823947034581304,point,123.0,5498000.0,CZK,Prodej bytu 4+kk 123 m²,apartment,sale,https://www.sreality.cz/detail/prodej/byt/4+kk/benatky-nad-jizerou-benatky-nad-jizerou-ii-prazska/89005916
673,89247324,Praha 4 - Chodov,CZ,50.035146833994396,14.5058339672424,polygon,64.0,4860000.0,CZK,Prodej bytu 3+kk 64 m²,apartment,sale,https://www.sreality.cz/detail/prodej/byt/3+kk/praha-chodov-/89247324
674,89796188,"Mandre, Chorvatsko",CZ,44.477968166389395,14.9205231194523,point,72.0,5563108.0,CZK,Prodej bytu 3+kk 72 m²,apartment,sale,https://www.sreality.cz/detail/prodej/byt/3+kk/mandre--/89796188
675,89751388,"Kovářská, Praha 9 - Libeň",CZ,50.10575222222,14.49153472222,point,32.0,3980400.0,CZK,Prodej bytu 1+kk 32 m²,apartment,sale,https://www.sreality.cz/detail/prodej/byt/1+kk/praha-liben-kovarska/89751388
676,90094684,"Na kovárně, Praha 10 - Vršovice",CZ,50.0687103271484,14.4544200897217,point,149.0,26000000.0,CZK,Prodej bytu 4+1 149 m²,apartment,sale,https://www.sreality.cz/detail/prodej/byt/4+1/praha-vrsovice-na-kovarne/90094684
683,90931036,"Buková, Praha 3 - Žižkov",CZ,50.0897714662212,14.495641154490599,line,18.0,2199999.0,CZK,Prodej bytu 1+kk 18 m²,apartment,sale,https://www.sreality.cz/detail/prodej/byt/1+kk/praha-zizkov-bukova/90931036
686,91659356,"Sladkovského, Plzeň - Východní Předměstí",CZ,49.741390228271506,13.3948802947998,point,26.0,1499000.0,CZK,Prodej bytu 1+kk 26 m²,apartment,sale,https://www.sreality.cz/detail/prodej/byt/1+kk/plzen-vychodni-predmesti-sladkovskeho/91659356
689,91577948,"Vítkovice, okres Semily",CZ,50.684139,15.528610999999998,point,45.0,5510000.0,CZK,Prodej bytu 1+kk 45 m²,apartment,sale,https://www.sreality.cz/detail/prodej/byt/1+kk/vitkovice--/91577948
697,92647260,"Tisová, okres Tachov",CZ,49.764346521126,12.7137641388358,point,57.0,1390000.0,CZK,Prodej bytu 2+1 57 m²,apartment,sale,https://www.sreality.cz/detail/prodej/byt/2+1/tisova-tisova-/92647260
698,92965980,"Zálesí, Praha 4 - Krč",CZ,50.028166388879995,14.453312222220001,point,41.0,3850000.0,CZK,Prodej bytu 2+kk 41 m²,apartment,sale,https://www.sreality.cz/detail/prodej/byt/2+kk/praha-krc-zalesi/92965980
700,93282140,"Nitranská, Praha 3 - Vinohrady",CZ,50.07571344255071,14.450433223185199,line,102.0,16900000.0,CZK,Prodej bytu 4+kk 102 m²,apartment,sale,https://www.sreality.cz/detail/prodej/byt/4+kk/praha-vinohrady-nitranska/93282140
702,93007452,"Dlouhá, Praha 1 - Staré Město",CZ,50.0901001272248,14.4243459151219,line,81.0,13600000.0,CZK,Prodej bytu 3+kk 81 m²,apartment,sale,https://www.sreality.cz/detail/prodej/byt/3+kk/praha-stare-mesto-dlouha/93007452
703,93269596,"Holečkova, Praha 5 - Košíře",CZ,50.0737994196445,14.3941386045369,line,71.0,5650000.0,CZK,Prodej bytu 2+kk 71 m²,apartment,sale,https://www.sreality.cz/detail/prodej/byt/2+kk/praha-kosire-holeckova/93269596
704,93294172,"Plzeňská, Praha 5 - Košíře",CZ,50.06983899094421,14.3666511183928,line,114.0,8690000.0,CZK,Prodej bytu 3+kk 114 m²,apartment,sale,https://www.sreality.cz/detail/prodej/byt/3+kk/praha-kosire-plzenska/93294172
707,94199644,"Plovární, Plzeň - Jižní Předměstí",CZ,49.735654,13.379572,point,26.0,1890000.0,CZK,Prodej bytu 1+kk 26 m²,apartment,sale,https://www.sreality.cz/detail/prodej/byt/1+kk/plzen-jizni-predmesti-plovarni/94199644
708,94326364,"Branická, Praha 4 - Braník",CZ,50.039325756545,14.411461857948101,point,101.0,11000000.0,CZK,Prodej bytu 3+kk 101 m²,apartment,sale,https://www.sreality.cz/detail/prodej/byt/3+kk/praha-branik-branicka/94326364
710,94117724,"U školičky, Praha 9 - Libeň",CZ,50.108523999999996,14.491039,line,42.0,3990000.0,CZK,Prodej bytu 2+kk 42 m²,apartment,sale,https://www.sreality.cz/detail/prodej/byt/2+kk/praha-liben-u-skolicky/94117724
711,94522972,"Wassermannova, Praha - Hlubočepy",CZ,50.0285651348619,14.366739281582,line,49.0,5821955.0,CZK,Prodej bytu 2+kk 49 m²,apartment,sale,https://www.sreality.cz/detail/prodej/byt/2+kk/praha-hlubocepy-wassermannova/94522972
712,94408540,"Melantrichova, Praha 1 - Staré Město",CZ,50.0856021654,14.4205526528,point,165.0,19000000.0,CZK,Prodej bytu atypické 165 m² (Mezonet),apartment,sale,https://www.sreality.cz/detail/prodej/byt/atypicky/praha-stare-mesto-melantrichova/94408540
713,94703452,"Malkovského, Praha 9 - Letňany",CZ,50.1420808864,14.508782952899999,point,73.0,5700000.0,CZK,Prodej bytu 3+1 73 m²,apartment,sale,https://www.sreality.cz/detail/prodej/byt/3+1/praha-letnany-malkovskeho/94703452
714,94649948,"Nuselská, Praha 4 - Nusle",CZ,50.06130870000001,14.4483032,point,81.0,9504509.0,CZK,Prodej bytu 3+kk 81 m²,apartment,sale,https://www.sreality.cz/detail/prodej/byt/3+kk/praha-nusle-nuselska/94649948
721,95595612,"Vnitřní, Liberec - Liberec XXX-Vratislavice nad Nisou",CZ,50.7441383875,15.0956129505,point,65.0,3400000.0,CZK,Prodej bytu 3+1 65 m²,apartment,sale,https://www.sreality.cz/detail/prodej/byt/3+1/liberec-liberec-xxx-vratislavice-nad-nisou-vnitrni/95595612
724,95632988,"Hlavní třída, Šumperk",CZ,49.965785012065886,16.9767524488731,line,101.0,2990000.0,CZK,Prodej bytu 4+kk 101 m²,apartment,sale,https://www.sreality.cz/detail/prodej/byt/4+kk/sumperk-sumperk-hlavni-trida/95632988
725,95796316,"Nová, Ústí nad Labem - Střekov",CZ,50.657290072498505,14.061911970789001,line,83.0,1850000.0,CZK,Prodej bytu 3+1 83 m²,apartment,sale,https://www.sreality.cz/detail/prodej/byt/3+1/usti-nad-labem-strekov-nova/95796316
726,95948380,"U Kanálky, Praha 2 - Vinohrady",CZ,50.07785496375421,14.4460097498665,line,100.0,13990000.0,CZK,Prodej bytu 4+kk 100 m²,apartment,sale,https://www.sreality.cz/detail/prodej/byt/4+kk/praha-vinohrady-u-kanalky/95948380
727,95960668,"Tuchoměřice, okres Praha-západ",CZ,50.125900268555,14.272399902344,point,120.0,8097772.0,CZK,Prodej bytu 5+kk 120 m²,apartment,sale,https://www.sreality.cz/detail/prodej/byt/5+kk/tuchomerice-tuchomerice-/95960668
728,96411484,"Malešovská, Praha 9 - Újezd nad Lesy",CZ,50.0715815393014,14.6809802275514,point,118.0,7740000.0,CZK,Prodej bytu 5+kk 118 m²,apartment,sale,https://www.sreality.cz/detail/prodej/byt/5+kk/praha-ujezd-nad-lesy-malesovska/96411484
733,96997212,"Brigádníků, Tábor",CZ,49.4191076,14.6789247,point,75.0,2599000.0,CZK,Prodej bytu 3+1 75 m²,apartment,sale,https://www.sreality.cz/detail/prodej/byt/3+1/tabor-tabor-brigadniku/96997212
734,96869980,"Žerotínovo nám., Přerov - Přerov I-Město",CZ,49.4538174001122,17.4524760735922,line,95.0,3550000.0,CZK,Prodej bytu 3+1 95 m²,apartment,sale,https://www.sreality.cz/detail/prodej/byt/3+1/prerov-prerov-i-mesto-zerotinovo-nam-/96869980
736,97292124,"Závodu míru, Nejdek",CZ,50.33044721767801,12.722413417552099,point,92.0,2090000.0,CZK,Prodej bytu 3+1 92 m²,apartment,sale,https://www.sreality.cz/detail/prodej/byt/3+1/nejdek-nejdek-zavodu-miru/97292124
740,98520924,"Kladenská, Praha 6 - Vokovice",CZ,50.0957451,14.356484400000001,point,40.0,4650000.0,CZK,Prodej bytu 2+kk 40 m²,apartment,sale,https://www.sreality.cz/detail/prodej/byt/2+kk/praha-vokovice-kladenska/98520924
742,99462748,"Nad Petruskou, Praha - Vinohrady",CZ,50.069784522789796,14.439761732701099,line,115.0,12500000.0,CZK,Prodej bytu 3+1 115 m²,apartment,sale,https://www.sreality.cz/detail/prodej/byt/3+1/praha-vinohrady-nad-petruskou/99462748
746,99429980,"Výškovická, Ostrava - Zábřeh",CZ,49.7729737543785,18.2228986182178,line,72.0,1690000.0,CZK,Prodej bytu 3+1 72 m²,apartment,sale,https://www.sreality.cz/detail/prodej/byt/3+1/ostrava-zabreh-vyskovicka/99429980
748,99565148,"V Hůrkách, Praha 5 - Stodůlky",CZ,50.0485281026,14.3410225481,point,57.0,5196586.0,CZK,Prodej bytu 2+kk 57 m²,apartment,sale,https://www.sreality.cz/detail/prodej/byt/2+kk/praha-stodulky-v-hurkach/99565148
750,100257628,"Gerstnerova, Praha 7 - Holešovice",CZ,50.1029248030861,14.426430067137305,point,72.0,4700000.0,CZK,Prodej bytu 4+kk 72 m²,apartment,sale,https://www.sreality.cz/detail/prodej/byt/4+kk/praha-holesovice-gerstnerova/100257628
752,100499292,"Nádražní, Blansko",CZ,49.3540327303993,16.6493730368489,line,56.0,2600000.0,CZK,Prodej bytu 2+1 56 m²,apartment,sale,https://www.sreality.cz/detail/prodej/byt/2+1/blansko-blansko-nadrazni/100499292
753,100117596,"Zborovská, Brno - Žabovřesky",CZ,49.2134773902913,16.5816981293813,point,55.0,5190000.0,CZK,Prodej bytu 2+kk 55 m²,apartment,sale,https://www.sreality.cz/detail/prodej/byt/2+kk/brno-zabovresky-zborovska/100117596
755,100613724,"Grafická, Praha 5 - Smíchov",CZ,50.073078569188496,14.3945013211692,line,39.0,5990000.0,CZK,Prodej bytu 1+kk 39 m²,apartment,sale,https://www.sreality.cz/detail/prodej/byt/1+kk/praha-smichov-graficka/100613724
757,101228380,"Pařížská, Ústí nad Labem - Ústí nad Labem-centrum",CZ,50.661119539036996,14.0360435123189,line,98.0,3490000.0,CZK,Prodej bytu 3+kk 98 m²,apartment,sale,https://www.sreality.cz/detail/prodej/byt/3+kk/usti-nad-labem-usti-nad-labem-centrum-parizska/101228380
759,101125980,Praha 10 - Strašnice,CZ,50.064626950277,14.510862275453697,polygon,54.0,5190000.0,CZK,Prodej bytu 2+1 54 m²,apartment,sale,https://www.sreality.cz/detail/prodej/byt/2+1/praha-strasnice-/101125980
760,101351260,"Revoluční, Jablonec nad Nisou",CZ,50.7180141014431,15.1692498221092,point,108.0,2590000.0,CZK,Prodej bytu 4+kk 108 m²,apartment,sale,https://www.sreality.cz/detail/prodej/byt/4+kk/jablonec-nad-nisou-jablonec-nad-nisou-revolucni/101351260
763,101424220,"Kašperské Hory, okres Klatovy",CZ,49.14289152388621,13.556160961812001,polygon,2785.0,3155000.0,CZK,Prodej bytu 2+kk 2 785 m² (Podkrovní),apartment,sale,https://www.sreality.cz/detail/prodej/byt/2+kk/kasperske-hory-kasperske-hory-/101424220
765,101830236,"Rybářská, Plzeň - Jižní Předměstí",CZ,49.7495873240786,13.3658158735533,point,81.0,3780000.0,CZK,Prodej bytu 2+kk 81 m²,apartment,sale,https://www.sreality.cz/detail/prodej/byt/2+kk/plzen-jizni-predmesti-rybarska/101830236
766,102375260,"Třída Míru, Beroun - Beroun-Město",CZ,49.956649799999994,14.050381699999996,point,52.0,2995000.0,CZK,Prodej bytu 2+1 52 m²,apartment,sale,https://www.sreality.cz/detail/prodej/byt/2+1/beroun-beroun-mesto-trida-miru/102375260
772,103714652,"Ostašovská, Liberec - Liberec XI-Růžodol I",CZ,50.7737218196435,15.0389669240684,point,150.0,5400000.0,CZK,Prodej bytu 3+1 150 m²,apartment,sale,https://www.sreality.cz/detail/prodej/byt/3+1/liberec-liberec-xi-ruzodol-i-ostasovska/103714652
773,103493468,"Milevská, Praha 4 - Krč",CZ,50.0485796742035,14.437376814873,line,81.0,17545000.0,CZK,Prodej bytu 2+kk 81 m²,apartment,sale,https://www.sreality.cz/detail/prodej/byt/2+kk/praha-krc-milevska/103493468
776,103304796,"Štěchovická, Praha 10 - Strašnice",CZ,50.0716400146484,14.5008096694946,point,84.0,6901703.0,CZK,Prodej bytu 3+kk 84 m²,apartment,sale,https://www.sreality.cz/detail/prodej/byt/3+kk/praha-strasnice-stechovicka/103304796
777,103092060,"Jihlava - Hruškové Dvory, okres Jihlava",CZ,49.40769340787539,15.6097103411578,polygon,77.0,3490000.0,CZK,Prodej bytu 3+kk 77 m²,apartment,sale,https://www.sreality.cz/detail/prodej/byt/3+kk/jihlava-hruskove-dvory-/103092060
779,103755356,"Kralupská, Brandýs nad Labem-Stará Boleslav - Brandýs nad Labem",CZ,50.1853431249862,14.652050436962199,line,61.0,3948000.0,CZK,Prodej bytu 2+kk 61 m²,apartment,sale,https://www.sreality.cz/detail/prodej/byt/2+kk/brandys-nad-labem-stara-boleslav-brandys-nad-labem-kralupska/103755356
781,104218204,"Ruská, Brno - Královo Pole",CZ,49.2221383301429,16.5904960393165,line,89.0,5890000.0,CZK,Prodej bytu 3+kk 89 m² (Mezonet),apartment,sale,https://www.sreality.cz/detail/prodej/byt/3+kk/brno-kralovo-pole-ruska/104218204
782,104206172,"Sladová, Brno - Staré Brno",CZ,49.1925938781496,16.5962686176525,point,40.0,3490000.0,CZK,Prodej bytu 1+1 40 m²,apartment,sale,https://www.sreality.cz/detail/prodej/byt/1+1/brno-stare-brno-sladova/104206172
787,104619868,"Šumavská, Karlovy Vary",CZ,50.2266513475109,12.8527272380136,line,73.0,3751409.0,CZK,Prodej bytu 2+kk 73 m²,apartment,sale,https://www.sreality.cz/detail/prodej/byt/2+kk/karlovy-vary-karlovy-vary-sumavska/104619868
791,104902492,"Štanderova, Praha 9 - Letňany",CZ,50.141611,14.522104,point,57.0,5050000.0,CZK,Prodej bytu 2+kk 57 m²,apartment,sale,https://www.sreality.cz/detail/prodej/byt/2+kk/praha-letnany-standerova/104902492
792,104980060,"Šumavská, Karlovy Vary",CZ,50.2266513475109,12.8527272380136,line,53.0,1716000.0,CZK,Prodej bytu 2+kk 53 m²,apartment,sale,https://www.sreality.cz/detail/prodej/byt/2+kk/karlovy-vary-karlovy-vary-sumavska/104980060
795,105696860,"Blažovice, okres Brno-venkov",CZ,49.1656854122326,16.7861097299505,polygon,92.0,5438265.0,CZK,Prodej bytu 3+kk 92 m²,apartment,sale,https://www.sreality.cz/detail/prodej/byt/3+kk/blazovice--/105696860
801,106863708,"Pražská tř., České Budějovice - České Budějovice 3",CZ,48.982852222220004,14.47045,point,37.0,1980000.0,CZK,Prodej bytu 1+1 37 m²,apartment,sale,https://www.sreality.cz/detail/prodej/byt/1+1/ceske-budejovice-ceske-budejovice-3-prazska-tr-/106863708
802,106663004,"Kašparova, Karviná - Hranice",CZ,49.86949072000149,18.5544634835133,line,74.0,1347190.0,CZK,Prodej bytu 3+1 74 m²,apartment,sale,https://www.sreality.cz/detail/prodej/byt/3+1/karvina-hranice-kasparova/106663004
805,107138652,"Újezd, Praha 1 - Malá Strana",CZ,50.0832710917,14.4042907975,point,45.0,6990000.0,CZK,Prodej bytu 2+kk 45 m²,apartment,sale,https://www.sreality.cz/detail/prodej/byt/2+kk/praha-mala-strana-ujezd/107138652
806,108043868,"Wolkerova, Olomouc",CZ,49.587557409258785,17.2437306100076,line,59.0,3148500.0,CZK,Prodej bytu 2+kk 59 m²,apartment,sale,https://www.sreality.cz/detail/prodej/byt/2+kk/olomouc-olomouc-wolkerova/108043868
809,107556444,"Holubice - Kozinec, okres Praha-západ",CZ,50.1962012336594,14.2967675625976,polygon,82.0,4500000.0,CZK,Prodej bytu 3+kk 82 m²,apartment,sale,https://www.sreality.cz/detail/prodej/byt/3+kk/holubice-kozinec-/107556444
810,108064604,"Na Jezerce, Praha - Nusle",CZ,50.05851011275021,14.4443068634742,line,108.0,9900000.0,CZK,Prodej bytu 3+kk 108 m²,apartment,sale,https://www.sreality.cz/detail/prodej/byt/3+kk/praha-nusle-na-jezerce/108064604
814,109539676,"ulice Zeyerova, Karlovy Vary - část obce Karlovy Vary",CZ,50.23033184594661,12.869513439229502,line,77.0,2220000.0,CZK,Prodej bytu 2+1 77 m²,apartment,sale,https://www.sreality.cz/detail/prodej/byt/2+1/karlovy-vary-cast-obce-karlovy-vary-ulice-zeyerova/109539676
815,109600604,"Mikuleč, okres Svitavy",CZ,49.805820659745294,16.422495876238198,polygon,176.0,4200000.0,CZK,Prodej bytu 4+1 176 m² (Mezonet),apartment,sale,https://www.sreality.cz/detail/prodej/byt/4+1/mikulec-mikulec-/109600604
816,108899420,"U Imperiálu, Karlovy Vary",CZ,50.2185377712915,12.8905483865244,line,157.0,9790000.0,CZK,Prodej bytu 3+kk 157 m²,apartment,sale,https://www.sreality.cz/detail/prodej/byt/3+kk/karlovy-vary-karlovy-vary-u-imperialu/108899420
822,110395228,"Chrpová, Trutnov - Horní Staré Město",CZ,50.581032814882406,15.889768725780597,line,59.0,2100000.0,CZK,Prodej bytu 3+1 59 m²,apartment,sale,https://www.sreality.cz/detail/prodej/byt/3+1/trutnov-horni-stare-mesto-chrpova/110395228
825,111029852,Praha 5 - Smíchov,CZ,50.075308525311286,14.405656171915199,polygon,66.0,8853000.0,CZK,Prodej bytu 2+kk 66 m²,apartment,sale,https://www.sreality.cz/detail/prodej/byt/2+kk/praha-smichov-/111029852
826,111033948,"U Spořitelny, Česká Třebová",CZ,49.902762718294795,16.4454936722311,point,105.0,2190000.0,CZK,Prodej bytu 3+1 105 m²,apartment,sale,https://www.sreality.cz/detail/prodej/byt/3+1/ceska-trebova-ceska-trebova-u-sporitelny/111033948
827,111197276,"tř. Těreškovové, Karviná - Mizerov",CZ,49.8577853983152,18.5555589413126,line,54.0,1050000.0,CZK,Prodej bytu 3+1 54 m²,apartment,sale,https://www.sreality.cz/detail/prodej/byt/3+1/karvina-mizerov-tr--tereskovove/111197276
832,112045148,"Komenského, Hostivice",CZ,50.0764992,14.2569378,point,56.0,3990000.0,CZK,Prodej bytu 3+kk 56 m²,apartment,sale,https://www.sreality.cz/detail/prodej/byt/3+kk/hostivice-hostivice-komenskeho/112045148
836,112463708,"Kovanecká, Praha 9 - Libeň",CZ,50.10862805560001,14.485670833299999,point,58.0,5699000.0,CZK,Prodej bytu 2+kk 58 m²,apartment,sale,https://www.sreality.cz/detail/prodej/byt/2+kk/praha-liben-kovanecka/112463708
838,113196636,"Na Bělidle, Týniště nad Orlicí",CZ,50.149236546316004,16.077850460664198,line,103.0,3937000.0,CZK,Prodej bytu 4+kk 103 m²,apartment,sale,https://www.sreality.cz/detail/prodej/byt/4+kk/tyniste-nad-orlici-tyniste-nad-orlici-na-belidle/113196636
839,113192540,"Výškovická, Ostrava - Zábřeh",CZ,49.7762527,18.2557595,point,46.0,1230000.0,CZK,Prodej bytu 2+1 46 m²,apartment,sale,https://www.sreality.cz/detail/prodej/byt/2+1/ostrava-zabreh-vyskovicka/113192540
846,114400348,"Sokolovská, Karlovy Vary - Rybáře",CZ,50.2334458201925,12.8485176410903,line,55.0,1290000.0,CZK,Prodej bytu 2+1 55 m²,apartment,sale,https://www.sreality.cz/detail/prodej/byt/2+1/karlovy-vary-rybare-sokolovska/114400348
847,114528092,"K Cukrovaru, Odolena Voda",CZ,50.2330642404862,14.413340106014,line,56.0,4084090.0,CZK,Prodej bytu 2+kk 56 m²,apartment,sale,https://www.sreality.cz/detail/prodej/byt/2+kk/odolena-voda-odolena-voda-k-cukrovaru/114528092
851,115007068,"U Průhonu, Praha 7 - Holešovice",CZ,50.106438857056894,14.443705163920901,point,81.0,8748000.0,CZK,Prodej bytu 3+kk 81 m²,apartment,sale,https://www.sreality.cz/detail/prodej/byt/3+kk/praha-holesovice-u-pruhonu/115007068
854,115719260,"Chocenice, okres Plzeň-jih",CZ,49.5482494124236,13.521621845512199,point,77.0,1790000.0,CZK,Prodej bytu 3+1 77 m²,apartment,sale,https://www.sreality.cz/detail/prodej/byt/3+1/chocenice-chocenice-/115719260
855,115166812,"Horní náměstí, Vsetín",CZ,49.340716184612205,17.997901267275,line,75.0,3400000.0,CZK,Prodej bytu 3+kk 75 m²,apartment,sale,https://www.sreality.cz/detail/prodej/byt/3+kk/vsetin-vsetin-horni-namesti/115166812
857,116113756,"Jateční, Karlovy Vary",CZ,50.234718227043295,12.8724367144841,line,85.0,4617000.0,CZK,Prodej bytu 2+kk 85 m²,apartment,sale,https://www.sreality.cz/detail/prodej/byt/2+kk/karlovy-vary-karlovy-vary-jatecni/116113756
862,116752220,"Nákladní, Karlovy Vary - Rybáře",CZ,50.2341682494151,12.863520809104,point,90.0,2180000.0,CZK,Prodej bytu 3+1 90 m²,apartment,sale,https://www.sreality.cz/detail/prodej/byt/3+1/karlovy-vary-rybare-nakladni/116752220
863,116448860,Praha 5 - Smíchov,CZ,50.0753085253113,14.405656171915199,polygon,138.0,18000000.0,CZK,Prodej bytu 4+kk 138 m²,apartment,sale,https://www.sreality.cz/detail/prodej/byt/4+kk/praha-smichov-/116448860
864,116866652,"Kosmonautů, Ostrava - Zábřeh",CZ,49.78746921571661,18.2309396372278,line,54.0,1300000.0,CZK,Prodej bytu 2+1 54 m²,apartment,sale,https://www.sreality.cz/detail/prodej/byt/2+1/ostrava-zabreh-kosmonautu/116866652
865,116948828,"Konradova, Brno - Líšeň",CZ,49.207902794417286,16.6837553690995,line,76.0,4600000.0,CZK,Prodej bytu 3+1 76 m²,apartment,sale,https://www.sreality.cz/detail/prodej/byt/3+1/brno-lisen-konradova/116948828
867,117083228,"Pražská tř., České Budějovice - České Budějovice 3",CZ,48.983332,14.469828,point,84.0,1850000.0,CZK,Prodej bytu 3+1 84 m²,apartment,sale,https://www.sreality.cz/detail/prodej/byt/3+1/ceske-budejovice-ceske-budejovice-3-prazska-tr-/117083228
873,118214236,"Preslova, Praha 5 - Smíchov",CZ,50.0747303498528,14.406107176524902,point,100.0,10950000.0,CZK,Prodej bytu 3+1 100 m²,apartment,sale,https://www.sreality.cz/detail/prodej/byt/3+1/praha-smichov-preslova/118214236
877,118873692,"Tomáškova, Mariánské Lázně - Úšovice",CZ,49.953051614972715,12.711688480097301,line,99.0,3600000.0,CZK,Prodej bytu 4+1 99 m²,apartment,sale,https://www.sreality.cz/detail/prodej/byt/4+1/marianske-lazne-usovice-tomaskova/118873692
881,119467868,"Žďárky, okres Náchod",CZ,50.4682251620853,16.227337452805,polygon,80.0,1650000.0,CZK,Prodej bytu 3+1 80 m²,apartment,sale,https://www.sreality.cz/detail/prodej/byt/3+1/zdarky--/119467868
884,119721564,"Kraiczova, Valašské Meziříčí",CZ,49.467484751044,17.9686770913736,line,52.0,1760000.0,CZK,Prodej bytu 2+1 52 m²,apartment,sale,https://www.sreality.cz/detail/prodej/byt/2+1/valasske-mezirici-valasske-mezirici-kraiczova/119721564
887,120684380,"Čenětická, Praha 4 - Chodov",CZ,50.0425099961373,14.499366450029994,point,45.0,4250000.0,CZK,Prodej bytu 2+kk 45 m²,apartment,sale,https://www.sreality.cz/detail/prodej/byt/2+kk/praha-chodov-ceneticka/120684380
889,121761372,"Lesnická, Plumlov",CZ,49.4662907472343,17.0068009003983,point,82.0,2596000.0,CZK,Prodej bytu 3+1 82 m²,apartment,sale,https://www.sreality.cz/detail/prodej/byt/3+1/plumlov-plumlov-lesnicka/121761372
890,121249628,"Klementova, Praha",CZ,50.0458314265343,14.305341338391699,line,66.0,5950754.0,CZK,Prodej bytu 2+kk 66 m²,apartment,sale,https://www.sreality.cz/detail/prodej/byt/2+kk/praha--klementova/121249628
892,121982556,"Čelakovského sady, Praha 2 - Vinohrady",CZ,50.0775898801948,14.4312481010083,point,80.0,12490000.0,CZK,Prodej bytu 2+kk 80 m²,apartment,sale,https://www.sreality.cz/detail/prodej/byt/2+kk/praha-vinohrady-celakovskeho-sady/121982556
894,122167132,"Valachův žleb, Zlín",CZ,49.2434579906416,17.671660689511498,line,75.0,3890000.0,CZK,Prodej bytu 3+1 75 m²,apartment,sale,https://www.sreality.cz/detail/prodej/byt/3+1/zlin-zlin-valachuv-zleb/122167132
901,122490460,"Černodolská, Praha 9 - Dolní Počernice",CZ,50.08339162458471,14.575870228539,line,34.0,3272889.0,CZK,Prodej bytu 1+kk 34 m²,apartment,sale,https://www.sreality.cz/detail/prodej/byt/1+kk/praha-dolni-pocernice-cernodolska/122490460
903,122367836,"Roztoky, okres Rakovník",CZ,50.02671385041121,13.867866608775001,polygon,70.0,1999000.0,CZK,Prodej bytu 2+1 70 m²,apartment,sale,https://www.sreality.cz/detail/prodej/byt/2+1/roztoky-roztoky-/122367836
905,122576732,"Přibyslavská, Praha 3 - Žižkov",CZ,50.0841428374759,14.447814101043301,point,84.0,9590000.0,CZK,Prodej bytu 4+1 84 m²,apartment,sale,https://www.sreality.cz/detail/prodej/byt/4+1/praha-zizkov-pribyslavska/122576732
909,122781532,"Budovatelů, Hlinsko",CZ,49.7651398639133,15.917312454760498,line,56.0,1670000.0,CZK,Prodej bytu 2+1 56 m²,apartment,sale,https://www.sreality.cz/detail/prodej/byt/2+1/hlinsko-hlinsko-budovatelu/122781532
910,123251804,"Dlouhá, České Budějovice - České Budějovice 2",CZ,48.9881771930789,14.454065136210899,point,69.0,3800000.0,CZK,Prodej bytu 3+kk 69 m²,apartment,sale,https://www.sreality.cz/detail/prodej/byt/3+kk/ceske-budejovice-ceske-budejovice-2-dlouha/123251804
913,123293532,"Bezdrevská, České Budějovice - České Budějovice 2",CZ,48.9917972855853,14.4518045360446,line,58.0,2690000.0,CZK,Prodej bytu 2+1 58 m²,apartment,sale,https://www.sreality.cz/detail/prodej/byt/2+1/ceske-budejovice-ceske-budejovice-2-bezdrevska/123293532
916,124411740,"Polská, Olomouc",CZ,49.5849526136483,17.248087610074002,line,55.0,2840000.0,CZK,Prodej bytu 2+1 55 m²,apartment,sale,https://www.sreality.cz/detail/prodej/byt/2+1/olomouc--polska/124411740
917,124898908,"Čerpadlová, Praha 9 - Vysočany",CZ,50.10077800000001,14.506194,point,74.0,6800000.0,CZK,Prodej bytu 3+kk 74 m²,apartment,sale,https://www.sreality.cz/detail/prodej/byt/3+kk/praha-vysocany-cerpadlova/124898908
920,124931932,"Jadranovo, Chorvatsko",CZ,45.22655375952121,14.616558262368601,point,51.0,3090540.0,CZK,Prodej bytu 2+kk 51 m²,apartment,sale,https://www.sreality.cz/detail/prodej/byt/2+kk/jadranovo--/124931932
921,125529692,"Tupolevova, Praha 9 - Letňany",CZ,50.136758052,14.5058707556,point,78.0,5880000.0,CZK,Prodej bytu 3+1 78 m²,apartment,sale,https://www.sreality.cz/detail/prodej/byt/3+1/praha-letnany-tupolevova/125529692
922,125578844,"Pouchovská, Hradec Králové",CZ,50.215873611099994,15.845695833299999,point,97.0,5690000.0,CZK,Prodej bytu 3+kk 97 m²,apartment,sale,https://www.sreality.cz/detail/prodej/byt/3+kk/hradec-kralove-hradec-kralove-pouchovska/125578844
923,125599580,"Bělehradská, Praha 2 - Vinohrady",CZ,50.0738157,14.433115300000004,point,37.0,5650000.0,CZK,Prodej bytu 2+kk 37 m²,apartment,sale,https://www.sreality.cz/detail/prodej/byt/2+kk/praha-vinohrady-belehradska/125599580
927,126000220,"Divadelní náměstí, Karlovy Vary",CZ,50.221145214675204,12.8818775454459,line,65.0,6290400.0,CZK,Prodej bytu 2+kk 65 m²,apartment,sale,https://www.sreality.cz/detail/prodej/byt/2+kk/karlovy-vary-karlovy-vary-divadelni-namesti/126000220
928,126844764,"Opatovická, Praha 1 - Nové Město",CZ,50.0795457553192,14.417666142288802,line,56.0,7980000.0,CZK,Prodej bytu 2+kk 56 m²,apartment,sale,https://www.sreality.cz/detail/prodej/byt/2+kk/praha-nove-mesto-opatovicka/126844764
929,125738076,"Jeseník, okres Jeseník",CZ,50.2293701545491,17.2046430731627,polygon,92.0,3590000.0,CZK,Prodej bytu 3+kk 92 m²,apartment,sale,https://www.sreality.cz/detail/prodej/byt/3+kk/jesenik--/125738076
930,127160156,"Petrohradská, Praha 10 - Vršovice",CZ,50.0682610904153,14.450835283817899,point,81.0,9716350.0,CZK,Prodej bytu 3+kk 81 m²,apartment,sale,https://www.sreality.cz/detail/prodej/byt/3+kk/praha-vrsovice-petrohradska/127160156
933,127319900,"Mikoláše Alše, Most",CZ,50.512431,13.641478,point,117.0,2999000.0,CZK,Prodej bytu 3+kk 117 m²,apartment,sale,https://www.sreality.cz/detail/prodej/byt/3+kk/most-most-mikolase-alse/127319900
935,127638620,"Dukelských bojovníků, Znojmo",CZ,48.8380574142407,16.066182633440498,line,75.0,2600000.0,CZK,Prodej bytu 3+1 75 m²,apartment,sale,https://www.sreality.cz/detail/prodej/byt/3+1/znojmo-znojmo-dukelskych-bojovniku/127638620
938,128380508,"Lomnická, Kunice - Dolní Lomnice",CZ,49.91430686819999,14.6829025742,point,59.0,4530000.0,CZK,Prodej bytu 2+kk 59 m²,apartment,sale,https://www.sreality.cz/detail/prodej/byt/2+kk/kunice-dolni-lomnice-lomnicka/128380508
939,128405084,"Slévárenská, Trutnov - Střední Předměstí",CZ,50.5666398745673,15.900460962532401,line,30.0,1350000.0,CZK,Prodej bytu 1+kk 30 m²,apartment,sale,https://www.sreality.cz/detail/prodej/byt/1+kk/trutnov-stredni-predmesti-slevarenska/128405084
941,128683100,"Na Občinách, Hradec Králové - Nový Hradec Králové",CZ,50.1980599407973,15.861666971798101,line,83.0,4660000.0,CZK,Prodej bytu 3+kk 83 m²,apartment,sale,https://www.sreality.cz/detail/prodej/byt/3+kk/hradec-kralove-novy-hradec-kralove-na-obcinach/128683100
942,129477724,"Smetanova, Valašské Meziříčí",CZ,49.4639969,17.979473100000003,point,74.0,2650000.0,CZK,Prodej bytu 3+1 74 m²,apartment,sale,https://www.sreality.cz/detail/prodej/byt/3+1/valasske-mezirici-valasske-mezirici-smetanova/129477724
943,128458588,"Domažlice - Týnské Předměstí, okres Domažlice",CZ,49.4430324947879,12.931448897424,polygon,69.0,2790000.0,CZK,Prodej bytu 3+1 69 m²,apartment,sale,https://www.sreality.cz/detail/prodej/byt/3+1/domazlice-tynske-predmesti-/128458588
944,127856220,"Olomouc, okres Olomouc",CZ,49.593868693598786,17.2508705732619,polygon,129.0,6667270.0,CZK,Prodej bytu 4+kk 129 m²,apartment,sale,https://www.sreality.cz/detail/prodej/byt/4+kk/olomouc--/127856220
945,129572700,"Zázvorkova, Praha 5 - Stodůlky",CZ,50.0460679645905,14.332551910694802,point,102.0,7200000.0,CZK,Prodej bytu 3+1 102 m²,apartment,sale,https://www.sreality.cz/detail/prodej/byt/3+1/praha-stodulky-zazvorkova/129572700
947,130071644,"Libušina, Mariánské Lázně",CZ,49.9602934378792,12.6939720435812,line,58.0,2280000.0,CZK,Prodej bytu 3+1 58 m²,apartment,sale,https://www.sreality.cz/detail/prodej/byt/3+1/marianske-lazne-marianske-lazne-libusina/130071644
950,130076252,"Bezručova, Frýdek-Místek - Místek",CZ,49.6728639840833,18.34676501969589,line,59.0,3077573.0,CZK,Prodej bytu 2+kk 59 m²,apartment,sale,https://www.sreality.cz/detail/prodej/byt/2+kk/frydek-mistek-mistek-bezrucova/130076252
951,130747996,"Melodická, Praha 5 - Stodůlky",CZ,50.0513799880881,14.330376662226,point,47.0,4130000.0,CZK,Prodej bytu 1+kk 47 m²,apartment,sale,https://www.sreality.cz/detail/prodej/byt/1+kk/praha-stodulky-melodicka/130747996
954,130862940,"Na Zámyšli, Praha 5 - Košíře",CZ,50.0695237977622,14.374152355685695,line,40.0,4820000.0,CZK,Prodej bytu 2+kk 40 m²,apartment,sale,https://www.sreality.cz/detail/prodej/byt/2+kk/praha-kosire-na-zamysli/130862940
958,131006300,"Cedrová, Jesenice",CZ,49.9694165214914,14.5251963180805,line,68.0,4590000.0,CZK,Prodej bytu 2+kk 68 m²,apartment,sale,https://www.sreality.cz/detail/prodej/byt/2+kk/jesenice-jesenice-cedrova/131006300
961,131513436,"Čs. odbojářů, Chodov",CZ,50.234467427100704,12.7456599256356,point,64.0,1350000.0,CZK,Prodej bytu 2+1 64 m²,apartment,sale,https://www.sreality.cz/detail/prodej/byt/2+1/chodov-chodov-cs--odbojaru/131513436
965,132357212,"Švehlova, Praha 10 - Záběhlice",CZ,50.0558984,14.515422599999999,point,79.0,7618750.0,CZK,Prodej bytu 3+kk 79 m²,apartment,sale,https://www.sreality.cz/detail/prodej/byt/3+kk/praha-zabehlice-svehlova/132357212
966,131439708,"Tylova, Kroměříž",CZ,49.29753738504311,17.3969509407007,line,49.0,1950000.0,CZK,Prodej bytu 1+1 49 m²,apartment,sale,https://www.sreality.cz/detail/prodej/byt/1+1/kromeriz-kromeriz-tylova/131439708
967,132955228,"Lipno nad Vltavou - Slupečná, okres Český Krumlov",CZ,48.641513173999996,14.2169882375,point,75.0,3930950.0,CZK,Prodej bytu 3+kk 75 m²,apartment,sale,https://www.sreality.cz/detail/prodej/byt/3+kk/lipno-nad-vltavou-slupecna-/132955228
974,133435228,"Jaselská, Praha 6 - Dejvice",CZ,50.09851989783301,14.4003445322949,point,95.0,12399000.0,CZK,Prodej bytu 2+kk 95 m² (Mezonet),apartment,sale,https://www.sreality.cz/detail/prodej/byt/2+kk/praha-dejvice-jaselska/133435228
976,134819420,"Svárovská, Česká Lípa",CZ,50.6775093078613,14.5375003814697,point,78.0,1736000.0,CZK,Prodej bytu 3+1 78 m²,apartment,sale,https://www.sreality.cz/detail/prodej/byt/3+1/ceska-lipa-ceska-lipa-svarovska/134819420
978,135032668,"Havířov - Šumbark, okres Karviná",CZ,49.796900339572,18.4166796197733,polygon,63.0,1100000.0,CZK,Prodej bytu 3+1 63 m²,apartment,sale,https://www.sreality.cz/detail/prodej/byt/3+1/havirov-sumbark-/135032668
979,135102300,"Jirkovská, Chomutov",CZ,50.4858449207944,13.4391888917765,point,79.0,1380000.0,CZK,Prodej bytu 4+1 79 m²,apartment,sale,https://www.sreality.cz/detail/prodej/byt/4+1/chomutov-chomutov-jirkovska/135102300
980,135310428,"Picassova, Ústí nad Labem - Mojžíř",CZ,50.680637402603395,14.103399863694301,point,68.0,1090000.0,CZK,Prodej bytu 3+1 68 m²,apartment,sale,https://www.sreality.cz/detail/prodej/byt/3+1/usti-nad-labem-mojzir-picassova/135310428
981,134635356,"Hasičská, Ostrava - Hrabůvka",CZ,49.7921672388947,18.2624017842662,line,58.0,2511250.0,CZK,Prodej bytu 2+kk 58 m²,apartment,sale,https://www.sreality.cz/detail/prodej/byt/2+kk/ostrava-hrabuvka-hasicska/134635356
983,135552860,"Františka Křížka, Praha 7 - Holešovice",CZ,50.101470947265604,14.430459976196301,point,102.0,9900000.0,CZK,Prodej bytu 2+1 102 m²,apartment,sale,https://www.sreality.cz/detail/prodej/byt/2+1/praha-holesovice-frantiska-krizka/135552860
985,136547932,"Zvěřinova, Praha 3 - Strašnice",CZ,50.0847944329,14.4857344149,point,39.0,3900000.0,CZK,Prodej bytu 1+kk 39 m²,apartment,sale,https://www.sreality.cz/detail/prodej/byt/1+kk/praha-strasnice-zverinova/136547932
988,136261212,"Komenského, Vamberk",CZ,50.117220106524,16.287622343777198,line,46.0,1890000.0,CZK,Prodej bytu 2+kk 46 m²,apartment,sale,https://www.sreality.cz/detail/prodej/byt/2+kk/vamberk-vamberk-komenskeho/136261212
989,137075804,"Sídliště Jana Patočky, Turnov",CZ,50.588921899999995,15.145343900000002,point,61.0,2490000.0,CZK,Prodej bytu 2+1 61 m²,apartment,sale,https://www.sreality.cz/detail/prodej/byt/2+1/turnov-turnov-sidliste-jana-patocky/137075804
990,136986460,"Nad rybníčky, Praha 4 - Kunratice",CZ,50.005644146899996,14.4851924049,point,115.0,14490000.0,CZK,Prodej bytu 4+kk 115 m² (Mezonet),apartment,sale,https://www.sreality.cz/detail/prodej/byt/4+kk/praha-kunratice-nad-rybnicky/136986460
991,136797788,"Jana Zajíce, Praha 7 - Bubeneč",CZ,50.1006734329996,14.4170051037808,point,60.0,7500000.0,CZK,Prodej bytu 2+kk 60 m²,apartment,sale,https://www.sreality.cz/detail/prodej/byt/2+kk/praha-bubenec-jana-zajice/136797788
992,137162332,"Poděbradovo nám., Prostějov",CZ,49.46929783250461,17.1102869506914,line,90.0,2700000.0,CZK,Prodej bytu 4+1 90 m²,apartment,sale,https://www.sreality.cz/detail/prodej/byt/4+1/prostejov-prostejov-podebradovo-nam-/137162332
1003,138231388,"Renčova, Brno - Řečkovice",CZ,49.247779618013496,16.5745151705511,line,62.0,3790000.0,CZK,Prodej bytu 2+1 62 m²,apartment,sale,https://www.sreality.cz/detail/prodej/byt/2+1/brno-reckovice-rencova/138231388
1004,138415964,"Blanická, Olomouc - Hodolany",CZ,49.594273628787406,17.275257833135,point,53.0,2850000.0,CZK,Prodej bytu 2+kk 53 m²,apartment,sale,https://www.sreality.cz/detail/prodej/byt/2+kk/olomouc-hodolany-blanicka/138415964
