,local_unique_id,address,Country,lat,lng,coordinate_type,living_area,price,currency,title,type,offer_type,url
2,240732,"S. K. Neumanna, Pardubice - Zelené Předměstí",CZ,50.02477664174379,15.7787300210892,line,56.0,9800.0,CZK,Pronájem bytu 2+1 56 m²,apartment,rent,https://www.sreality.cz/detail/pronajem/byt/2+1/pardubice-zelene-predmesti-s--k--neumanna/240732
4,401244,"Havířská, Karviná - Nové Město",CZ,49.863478611111,18.534345000000002,point,56.0,5250.0,CZK,Pronájem bytu 2+1 56 m²,apartment,rent,https://www.sreality.cz/detail/pronajem/byt/2+1/karvina-nove-mesto-havirska/401244
5,286300,"Italská, Praha 2 - Vinohrady",CZ,50.08012457182551,14.437978732229302,line,94.0,48000.0,CZK,Pronájem bytu 3+kk 94 m²,apartment,rent,https://www.sreality.cz/detail/pronajem/byt/3+kk/praha-vinohrady-italska/286300
7,474716,"Jankovcova, Praha - Holešovice",CZ,50.110286070608794,14.4514380859215,line,43.0,16500.0,CZK,Pronájem bytu 1+kk 43 m²,apartment,rent,https://www.sreality.cz/detail/pronajem/byt/1+kk/praha-holesovice-jankovcova/474716
8,483164,"Jindřicha Plachty, Ostrava - Poruba",CZ,49.831749444444,18.165513888889,point,56.0,7700.0,CZK,Pronájem bytu 2+1 56 m²,apartment,rent,https://www.sreality.cz/detail/pronajem/byt/2+1/ostrava-poruba-jindricha-plachty/483164
10,540252,"Povltavská, Praha 8 - Troja",CZ,50.11607421253621,14.4364631658568,point,93.0,35000.0,CZK,Pronájem bytu 3+kk 93 m²,apartment,rent,https://www.sreality.cz/detail/pronajem/byt/3+kk/praha-troja-povltavska/540252
12,638044,Znojmo,CZ,48.8554987399813,16.0487976177613,polygon,31.0,6677.0,CZK,Pronájem bytu 1+1 31 m²,apartment,rent,https://www.sreality.cz/detail/pronajem/byt/1+1/znojmo-znojmo-/638044
15,1015644,"Svornosti, Praha 5 - Smíchov",CZ,50.0705562904,14.409025856800001,point,64.0,17500.0,CZK,Pronájem bytu 2+1 64 m²,apartment,rent,https://www.sreality.cz/detail/pronajem/byt/2+1/praha-smichov-svornosti/1015644
18,1277788,"Charkovská, Praha 10 - Vršovice",CZ,50.070753438221296,14.449995302941101,point,50.0,11000.0,CZK,Pronájem bytu 1+1 50 m²,apartment,rent,https://www.sreality.cz/detail/pronajem/byt/1+1/praha-vrsovice-charkovska/1277788
19,1474396,"Na Mušce, Holice",CZ,50.0755385908895,15.9824129963523,line,32.0,6900.0,CZK,Pronájem bytu 1+1 32 m²,apartment,rent,https://www.sreality.cz/detail/pronajem/byt/1+1/holice-holice-na-musce/1474396
22,1765212,"Laubova, Praha 3 - Vinohrady",CZ,50.0789605637653,14.450032002058801,line,95.0,64800.0,CZK,Pronájem bytu 3+kk 95 m²,apartment,rent,https://www.sreality.cz/detail/pronajem/byt/3+kk/praha-vinohrady-laubova/1765212
25,1916508,"Jakubské náměstí, Brno - Brno-město",CZ,49.1963622707477,16.6086825895012,point,60.0,25500.0,CZK,Pronájem bytu 2+kk 60 m²,apartment,rent,https://www.sreality.cz/detail/pronajem/byt/2+kk/brno-brno-mesto-jakubske-namesti/1916508
26,1912412,"Adamusova, Ostrava - Hrabůvka",CZ,49.789366510034114,18.261385620228,point,39.0,5990.0,CZK,Pronájem bytu 2+1 39 m²,apartment,rent,https://www.sreality.cz/detail/pronajem/byt/2+1/ostrava-hrabuvka-adamusova/1912412
27,2006108,"U kříže, Praha 5 - Jinonice",CZ,50.05427009014621,14.3664048053443,line,94.0,30000.0,CZK,Pronájem bytu 4+kk 94 m²,apartment,rent,https://www.sreality.cz/detail/pronajem/byt/4+kk/praha-jinonice-u-krize/2006108
28,2047580,"Holečkova, Praha 5 - Košíře",CZ,50.0717529597,14.3856450204,point,25.0,27500.0,CZK,Pronájem bytu 1+kk 25 m²,apartment,rent,https://www.sreality.cz/detail/pronajem/byt/1+kk/praha-kosire-holeckova/2047580
30,2318172,"Fastrova, Praha 6 - Břevnov",CZ,50.084043615,14.3753707753,point,91.0,28000.0,CZK,Pronájem bytu 3+kk 91 m² (Podkrovní),apartment,rent,https://www.sreality.cz/detail/pronajem/byt/3+kk/praha-brevnov-fastrova/2318172
32,2641756,"28. října, Ostrava - Moravská Ostrava",CZ,49.8320869168583,18.2795317039873,point,47.0,7500.0,CZK,Pronájem bytu 1+1 47 m²,apartment,rent,https://www.sreality.cz/detail/pronajem/byt/1+1/ostrava-moravska-ostrava-28--rijna/2641756
34,3841116,"Zvěřinova, Praha",CZ,50.08450515274,14.485477532109899,line,33.0,15000.0,CZK,Pronájem bytu 1+kk 33 m²,apartment,rent,https://www.sreality.cz/detail/pronajem/byt/1+kk/praha--zverinova/3841116
35,3960412,"Košická, Praha 10 - Vršovice",CZ,50.0698050433854,14.4498628108332,line,47.0,17500.0,CZK,Pronájem bytu 2+kk 47 m²,apartment,rent,https://www.sreality.cz/detail/pronajem/byt/2+kk/praha-vrsovice-kosicka/3960412
36,4480860,"Veveří, Brno - Veveří",CZ,49.1996002197266,16.6024799346924,point,45.0,13900.0,CZK,Pronájem bytu 2+kk 45 m²,apartment,rent,https://www.sreality.cz/detail/pronajem/byt/2+kk/brno-veveri-veveri/4480860
37,4554588,"Švýcarské nábřeží, Olomouc - Nové Sady",CZ,49.584536265112,17.2588554333597,point,68.0,13500.0,CZK,Pronájem bytu 2+kk 68 m²,apartment,rent,https://www.sreality.cz/detail/pronajem/byt/2+kk/olomouc-nove-sady-svycarske-nabrezi/4554588
38,4607580,"Italská, Praha 2 - Vinohrady",CZ,50.0766540712,14.435113365,point,44.0,18000.0,CZK,Pronájem bytu 1+kk 44 m²,apartment,rent,https://www.sreality.cz/detail/pronajem/byt/1+kk/praha-vinohrady-italska/4607580
41,4947548,"Mánesova, Praha 2 - Vinohrady",CZ,50.0778452371055,14.441404714602301,line,41.0,25000.0,CZK,Pronájem bytu 1+kk 41 m²,apartment,rent,https://www.sreality.cz/detail/pronajem/byt/1+kk/praha-vinohrady-manesova/4947548
43,5623644,"Klausova, Praha 5 - Stodůlky",CZ,50.037286713559396,14.3458423463742,point,120.0,20800.0,CZK,Pronájem bytu 3+kk 120 m²,apartment,rent,https://www.sreality.cz/detail/pronajem/byt/3+kk/praha-stodulky-klausova/5623644
44,5721948,"Kpt. Nálepky, Orlová - Poruba",CZ,49.859445,18.425163333333,point,62.0,4900.0,CZK,Pronájem bytu 3+1 62 m²,apartment,rent,https://www.sreality.cz/detail/pronajem/byt/3+1/orlova-poruba-kpt--nalepky/5721948
46,5865308,"Bezručova, Litvínov - Horní Litvínov",CZ,50.606200424738596,13.616945487712,point,94.0,6883.0,CZK,Pronájem bytu 4+1 94 m²,apartment,rent,https://www.sreality.cz/detail/pronajem/byt/4+1/litvinov-horni-litvinov-bezrucova/5865308
47,5992284,"5. května, Praha 4 - Nusle",CZ,50.056331634521506,14.437270164489698,point,32.0,11318.0,CZK,Pronájem bytu 1+kk 32 m²,apartment,rent,https://www.sreality.cz/detail/pronajem/byt/1+kk/praha-nusle-5--kvetna/5992284
53,6921308,"Famfulíkova, Praha 8 - Kobylisy",CZ,50.1320236963096,14.4711494873019,point,73.0,20000.0,CZK,Pronájem bytu 3+1 73 m²,apartment,rent,https://www.sreality.cz/detail/pronajem/byt/3+1/praha-kobylisy-famfulikova/6921308
54,6831964,"Ztracená, Praha 6 - Ruzyně",CZ,50.0823493892239,14.3085778999706,point,77.0,31900.0,CZK,Pronájem bytu 3+kk 77 m²,apartment,rent,https://www.sreality.cz/detail/pronajem/byt/3+kk/praha-ruzyne-ztracena/6831964
56,7122012,"Čerpadlová, Praha 9 - Vysočany",CZ,50.101390838623,14.505749702453599,point,58.0,10490.0,CZK,Pronájem bytu 1+1 58 m²,apartment,rent,https://www.sreality.cz/detail/pronajem/byt/1+1/praha-vysocany-cerpadlova/7122012
59,7618140,"Václavské náměstí, Praha 1 - Nové Město",CZ,50.08179092407229,14.428159713745101,point,150.0,28000.0,CZK,Pronájem bytu 2+1 150 m²,apartment,rent,https://www.sreality.cz/detail/pronajem/byt/2+1/praha-nove-mesto-vaclavske-namesti/7618140
63,8154972,"Klimentská, Praha 1 - Nové Město",CZ,50.0920082355628,14.430606058278,point,85.0,27000.0,CZK,Pronájem bytu 3+kk 85 m²,apartment,rent,https://www.sreality.cz/detail/pronajem/byt/3+kk/praha-nove-mesto-klimentska/8154972
66,8867676,"Pod Harfou, Praha 9 - Vysočany",CZ,50.104256,14.512569000000001,point,46.0,13500.0,CZK,Pronájem bytu 2+kk 46 m²,apartment,rent,https://www.sreality.cz/detail/pronajem/byt/2+kk/praha-vysocany-pod-harfou/8867676
67,9223260,"Myslíkova, Praha 2 - Nové Město",CZ,50.077646671180105,14.416952744917701,line,49.0,17000.0,CZK,Pronájem bytu 2+kk 49 m²,apartment,rent,https://www.sreality.cz/detail/pronajem/byt/2+kk/praha-nove-mesto-myslikova/9223260
71,9858908,"Kaplířova, Hradec Králové - Slezské Předměstí",CZ,50.2182588664157,15.843933852858903,point,22.0,7500.0,CZK,Pronájem  pokoje 22 m²,apartment,rent,https://www.sreality.cz/detail/pronajem/byt/pokoj/hradec-kralove-slezske-predmesti-kaplirova/9858908
74,10464348,"Cihlářská, Brno - Veveří",CZ,49.20405377260001,16.6042756169,point,51.0,10990.0,CZK,Pronájem bytu 1+1 51 m²,apartment,rent,https://www.sreality.cz/detail/pronajem/byt/1+1/brno-veveri-cihlarska/10464348
77,10895196,"Sportovní, Brno - Ponava",CZ,49.2098138350433,16.6077834853523,point,60.0,15500.0,CZK,Pronájem bytu 2+1 60 m²,apartment,rent,https://www.sreality.cz/detail/pronajem/byt/2+1/brno-ponava-sportovni/10895196
80,11058268,"Koněvova, Praha 3 - Žižkov",CZ,50.091829167244704,14.49508027734,point,69.0,17500.0,CZK,Pronájem bytu 3+1 69 m²,apartment,rent,https://www.sreality.cz/detail/pronajem/byt/3+1/praha-zizkov-konevova/11058268
82,11508828,"Šimáčkova, Praha 7 - Holešovice",CZ,50.1030840415434,14.4337563493698,point,30.0,13000.0,CZK,Pronájem bytu 1+kk 30 m²,apartment,rent,https://www.sreality.cz/detail/pronajem/byt/1+kk/praha-holesovice-simackova/11508828
86,12459868,"Högerova, Praha 5 - Hlubočepy",CZ,50.03311698936751,14.378136383987696,point,70.0,14900.0,CZK,Pronájem bytu 3+1 70 m²,apartment,rent,https://www.sreality.cz/detail/pronajem/byt/3+1/praha-hlubocepy-hogerova/12459868
87,12353372,"Pecháčkova, Praha 5 - Smíchov",CZ,50.073269868676995,14.4089986667839,line,98.0,34000.0,CZK,Pronájem bytu 3+kk 98 m²,apartment,rent,https://www.sreality.cz/detail/pronajem/byt/3+kk/praha-smichov-pechackova/12353372
90,12541788,"Václavské náměstí, Praha 1 - Nové Město",CZ,50.083535999999995,14.424057999999999,point,187.0,32000.0,CZK,Pronájem bytu 6 pokojů a více 187 m²,apartment,rent,https://www.sreality.cz/detail/pronajem/byt/6-a-vice/praha-nove-mesto-vaclavske-namesti/12541788
92,14064732,"Sokolovská, Praha 8 - Karlín",CZ,50.09437407203521,14.452309471967,point,80.0,19500.0,CZK,Pronájem bytu 3+kk 80 m²,apartment,rent,https://www.sreality.cz/detail/pronajem/byt/3+kk/praha-karlin-sokolovska/14064732
94,14077532,"Přátelství, Litvínov - Hamr",CZ,50.5926955473338,13.573087911357998,point,34.0,4800.0,CZK,Pronájem bytu 1+kk 34 m²,apartment,rent,https://www.sreality.cz/detail/pronajem/byt/1+kk/litvinov-hamr-pratelstvi/14077532
96,14462044,"Potoční, Šternberk",CZ,49.72984341220271,17.296120813831198,line,39.0,7500.0,CZK,Pronájem bytu 1+1 39 m²,apartment,rent,https://www.sreality.cz/detail/pronajem/byt/1+1/sternberk-sternberk-potocni/14462044
98,15126364,"F. L. Čelakovského, Most",CZ,50.5063892074216,13.6571364261591,line,68.0,12000.0,CZK,Pronájem bytu 3+kk 68 m²,apartment,rent,https://www.sreality.cz/detail/pronajem/byt/3+kk/most-most-f--l--celakovskeho/15126364
100,15330908,"Na struze, Praha 1 - Nové Město",CZ,50.07975,14.414385999999999,point,123.0,38000.0,CZK,Pronájem bytu 4+1 123 m²,apartment,rent,https://www.sreality.cz/detail/pronajem/byt/4+1/praha-nove-mesto-na-struze/15330908
101,15305820,"Veleslavínova, Praha 1 - Staré Město",CZ,50.08781840302471,14.415330147109305,line,160.0,50000.0,CZK,Pronájem bytu 4+1 160 m²,apartment,rent,https://www.sreality.cz/detail/pronajem/byt/4+1/praha-stare-mesto-veleslavinova/15305820
102,15379548,"Bulharská, Ostrava - Poruba",CZ,49.8259042029385,18.1879890281095,line,70.0,10000.0,CZK,Pronájem bytu 3+1 70 m²,apartment,rent,https://www.sreality.cz/detail/pronajem/byt/3+1/ostrava-poruba-bulharska/15379548
103,15506524,"Ouholická, Praha 8 - Čimice",CZ,50.14298257857021,14.4321913119569,line,45.0,12500.0,CZK,Pronájem bytu 2+kk 45 m²,apartment,rent,https://www.sreality.cz/detail/pronajem/byt/2+kk/praha-cimice-ouholicka/15506524
104,15899740,"Porubská, Ostrava - Poruba",CZ,49.8250325,18.173379999999998,point,47.0,6950.0,CZK,Pronájem bytu 2+1 47 m²,apartment,rent,https://www.sreality.cz/detail/pronajem/byt/2+1/ostrava-poruba-porubska/15899740
106,16019036,"Svatopluka Čecha, Jablonec nad Nisou",CZ,50.7265345348853,15.1790679663718,point,23.0,6000.0,CZK,Pronájem bytu 1+kk 23 m²,apartment,rent,https://www.sreality.cz/detail/pronajem/byt/1+kk/jablonec-nad-nisou-jablonec-nad-nisou-svatopluka-cecha/16019036
111,16334428,"Na Moráni, Praha 2 - Nové Město",CZ,50.0736607456892,14.4169520521586,line,155.0,46000.0,CZK,Pronájem bytu 4+kk 155 m²,apartment,rent,https://www.sreality.cz/detail/pronajem/byt/4+kk/praha-nove-mesto-na-morani/16334428
120,17402972,"Mlýnská, Brno - Trnitá",CZ,49.19048454143601,16.6173753466006,line,76.0,23000.0,CZK,Pronájem bytu 3+kk 76 m² (Mezonet),apartment,rent,https://www.sreality.cz/detail/pronajem/byt/3+kk/brno-trnita-mlynska/17402972
126,18070620,"Jungmannova, Praha 1 - Nové Město",CZ,50.080494345008,14.422526821438401,point,78.0,26000.0,CZK,Pronájem bytu 3+kk 78 m²,apartment,rent,https://www.sreality.cz/detail/pronajem/byt/3+kk/praha-nove-mesto-jungmannova/18070620
127,18427740,"Nad Popelkou, Praha 5 - Smíchov",CZ,50.068497277077206,14.3879974290362,point,55.0,11000.0,CZK,Pronájem bytu 1+1 55 m²,apartment,rent,https://www.sreality.cz/detail/pronajem/byt/1+1/praha-smichov-nad-popelkou/18427740
128,18141020,"V křepelkách, Praha 8 - Březiněves",CZ,50.1674119300229,14.481137634631699,point,25.0,8000.0,CZK,Pronájem bytu 1+kk 25 m²,apartment,rent,https://www.sreality.cz/detail/pronajem/byt/1+kk/praha-brezineves-v-krepelkach/18141020
130,18521948,"Mlýnská, Jihlava",CZ,49.4077873136967,15.5945316196684,line,51.0,9500.0,CZK,Pronájem bytu 1+1 51 m²,apartment,rent,https://www.sreality.cz/detail/pronajem/byt/1+1/jihlava-jihlava-mlynska/18521948
132,19115100,"Na výšinách, Praha - Bubeneč",CZ,50.100235999999995,14.418420999999999,line,51.0,16500.0,CZK,Pronájem bytu 2+kk 51 m²,apartment,rent,https://www.sreality.cz/detail/pronajem/byt/2+kk/praha-bubenec-na-vysinach/19115100
135,19496796,"Kamenická, Praha 7 - Holešovice",CZ,50.10019105078529,14.4272263864136,line,41.0,16000.0,CZK,Pronájem bytu 2+kk 41 m²,apartment,rent,https://www.sreality.cz/detail/pronajem/byt/2+kk/praha-holesovice-kamenicka/19496796
138,19726172,"Kramářova, Přerov - Přerov I-Město",CZ,49.44768541160911,17.4487930188179,point,60.0,9000.0,CZK,Pronájem bytu 2+1 60 m²,apartment,rent,https://www.sreality.cz/detail/pronajem/byt/2+1/prerov-prerov-i-mesto-kramarova/19726172
141,20065884,"Ječná, Praha - Nové Město",CZ,50.0755948491349,14.4249495930184,line,50.0,15000.0,CZK,Pronájem bytu 2+kk 50 m²,apartment,rent,https://www.sreality.cz/detail/pronajem/byt/2+kk/praha-nove-mesto-jecna/20065884
143,20679772,"Sídliště 1. máje, Rokytnice v Orlických horách",CZ,50.168556255739695,16.4648628775435,point,37.0,5000.0,CZK,Pronájem bytu 1+1 37 m²,apartment,rent,https://www.sreality.cz/detail/pronajem/byt/1+1/rokytnice-v-orlickych-horach-rokytnice-v-orlickych-horach-sidliste-1--maje/20679772
145,20807516,"Dělnická, Havířov - Prostřední Suchá",CZ,49.794493888889,18.448680555556,point,39.0,4100.0,CZK,Pronájem bytu 1+1 39 m²,apartment,rent,https://www.sreality.cz/detail/pronajem/byt/1+1/havirov-prostredni-sucha-delnicka/20807516
146,20880476,"Brunclíkova, Praha 6 - Břevnov",CZ,50.0857735766677,14.345597042869501,line,30.0,14500.0,CZK,Pronájem bytu 1+kk 30 m²,apartment,rent,https://www.sreality.cz/detail/pronajem/byt/1+kk/praha-brevnov-brunclikova/20880476
150,21237596,"Alšovo náměstí, Ostrava - Poruba",CZ,49.829396111111,18.167940833333002,point,57.0,7050.0,CZK,Pronájem bytu 2+kk 57 m²,apartment,rent,https://www.sreality.cz/detail/pronajem/byt/2+kk/ostrava-poruba-alsovo-namesti/21237596
152,21364572,"Břustkova, Ostrava - Výškovice",CZ,49.7823784712546,18.220847886752104,line,58.0,12000.0,CZK,Pronájem bytu 2+1 58 m²,apartment,rent,https://www.sreality.cz/detail/pronajem/byt/2+1/ostrava-vyskovice-brustkova/21364572
154,21393244,"Karla Buriana, Chomutov",CZ,50.462865645875,13.4203827267302,line,52.0,11000.0,CZK,Pronájem bytu 2+1 52 m²,apartment,rent,https://www.sreality.cz/detail/pronajem/byt/2+1/chomutov-chomutov-karla-buriana/21393244
157,21998684,"Jakutská, Praha 10 - Vršovice",CZ,50.072550832387,14.474210736135099,line,40.0,14800.0,CZK,Pronájem bytu 2+kk 40 m²,apartment,rent,https://www.sreality.cz/detail/pronajem/byt/2+kk/praha-vrsovice-jakutska/21998684
158,22110044,"Truhlářská, Praha 1 - Nové Město",CZ,50.0898390101984,14.4287075886359,point,64.0,32000.0,CZK,Pronájem bytu 3+kk 64 m²,apartment,rent,https://www.sreality.cz/detail/pronajem/byt/3+kk/praha-nove-mesto-truhlarska/22110044
159,22323036,"Čs. armády, Příbram - Příbram IV",CZ,49.6889158589097,14.0050934165188,line,24.0,7000.0,CZK,Pronájem bytu 1+kk 24 m²,apartment,rent,https://www.sreality.cz/detail/pronajem/byt/1+kk/pribram-pribram-iv-cs--armady/22323036
164,22916188,"Roháčova, Praha 3 - Žižkov",CZ,50.088718243101304,14.462730779407599,point,54.0,16500.0,CZK,Pronájem bytu 2+kk 54 m²,apartment,rent,https://www.sreality.cz/detail/pronajem/byt/2+kk/praha-zizkov-rohacova/22916188
165,23112796,"Dukelská, Ústí nad Orlicí - Hylváty",CZ,49.965975,16.4083185,point,57.0,10500.0,CZK,Pronájem bytu 2+1 57 m²,apartment,rent,https://www.sreality.cz/detail/pronajem/byt/2+1/usti-nad-orlici-hylvaty-dukelska/23112796
166,22859612,"Masarykovo nábřeží, Praha 1 - Nové Město",CZ,50.079520188624706,14.4139836133466,line,60.0,21000.0,CZK,Pronájem bytu 2+kk 60 m²,apartment,rent,https://www.sreality.cz/detail/pronajem/byt/2+kk/praha-nove-mesto-masarykovo-nabrezi/22859612
168,23580508,"Lidická, Praha 5 - Smíchov",CZ,50.0721535832,14.4056772208,point,60.0,23000.0,CZK,Pronájem bytu 2+kk 60 m²,apartment,rent,https://www.sreality.cz/detail/pronajem/byt/2+kk/praha-smichov-lidicka/23580508
170,23953244,"Běhounkova, Praha 5 - Stodůlky",CZ,50.053967072820605,14.3422098776512,point,35.0,10900.0,CZK,Pronájem bytu 1+kk 35 m²,apartment,rent,https://www.sreality.cz/detail/pronajem/byt/1+kk/praha-stodulky-behounkova/23953244
175,24711004,"Mánesova, Stříbro",CZ,49.753885922459,13.003926756457,line,60.0,11000.0,CZK,Pronájem bytu 2+kk 60 m²,apartment,rent,https://www.sreality.cz/detail/pronajem/byt/2+kk/stribro-stribro-manesova/24711004
177,24792924,"Halasova, Tišnov",CZ,49.343317,16.435491199999998,point,58.0,12500.0,CZK,Pronájem bytu 2+1 58 m²,apartment,rent,https://www.sreality.cz/detail/pronajem/byt/2+1/tisnov-tisnov-halasova/24792924
178,24751196,"Naskové, Praha 5 - Košíře",CZ,50.06315,14.359959,point,100.0,25000.0,CZK,Pronájem bytu 3+kk 100 m²,apartment,rent,https://www.sreality.cz/detail/pronajem/byt/3+kk/praha-kosire-naskove/24751196
183,25067356,"Franze Kafky, Mariánské Lázně - Úšovice",CZ,49.949283596902,12.705909186759904,line,56.0,10000.0,CZK,Pronájem bytu 2+kk 56 m²,apartment,rent,https://www.sreality.cz/detail/pronajem/byt/2+kk/marianske-lazne-usovice-franze-kafky/25067356
184,25255772,"Edisonova, Havířov - Město",CZ,49.780105555556,18.437396111111,point,54.0,5800.0,CZK,Pronájem bytu 2+1 54 m²,apartment,rent,https://www.sreality.cz/detail/pronajem/byt/2+1/havirov-mesto-edisonova/25255772
185,25341788,"Slovinská, Praha 10 - Vršovice",CZ,50.0701591231203,14.4586569997605,line,55.0,17000.0,CZK,Pronájem bytu 2+kk 55 m²,apartment,rent,https://www.sreality.cz/detail/pronajem/byt/2+kk/praha-vrsovice-slovinska/25341788
187,25542492,"Mirotická, Praha 4 - Libuš",CZ,50.0138999412296,14.456288883870899,point,45.0,13500.0,CZK,Pronájem bytu 2+kk 45 m²,apartment,rent,https://www.sreality.cz/detail/pronajem/byt/2+kk/praha-libus-miroticka/25542492
188,25664604,"Obřanská, Bílovice nad Svitavou",CZ,49.244384499999995,16.6631828,point,90.0,16000.0,CZK,Pronájem bytu 3+kk 90 m²,apartment,rent,https://www.sreality.cz/detail/pronajem/byt/3+kk/bilovice-nad-svitavou-bilovice-nad-svitavou-obranska/25664604
190,25771868,"Lhotákova, Praha 8 - Libeň",CZ,50.1230177220637,14.4731837661476,point,65.0,16000.0,CZK,Pronájem bytu 2+kk 65 m²,apartment,rent,https://www.sreality.cz/detail/pronajem/byt/2+kk/praha-liben-lhotakova/25771868
191,25833052,"Vrážská, Praha 5 - Radotín",CZ,49.9849159020995,14.364118649109097,point,25.0,8450.0,CZK,Pronájem bytu 1+kk 25 m²,apartment,rent,https://www.sreality.cz/detail/pronajem/byt/1+kk/praha-radotin-vrazska/25833052
192,25861212,"K háječku, Praha 10 - Strašnice",CZ,50.066883000000004,14.516282,line,47.0,10500.0,CZK,Pronájem bytu 1+kk 47 m²,apartment,rent,https://www.sreality.cz/detail/pronajem/byt/1+kk/praha-strasnice-k-hajecku/25861212
193,26468188,"Hamerská, Litvínov - Janov",CZ,50.5932807391579,13.570371680230696,point,80.0,10000.0,CZK,Pronájem bytu 3+1 80 m²,apartment,rent,https://www.sreality.cz/detail/pronajem/byt/3+1/litvinov-janov-hamerska/26468188
196,26852444,"Oblouková, Praha 10 - Vršovice",CZ,50.06731769162521,14.455645493601804,point,26.0,11000.0,CZK,Pronájem bytu 1+kk 26 m²,apartment,rent,https://www.sreality.cz/detail/pronajem/byt/1+kk/praha-vrsovice-obloukova/26852444
198,26689372,"Běchovická, Praha 10 - Strašnice",CZ,50.079782698100004,14.4886733619,point,84.0,16000.0,CZK,Pronájem bytu 2+1 84 m²,apartment,rent,https://www.sreality.cz/detail/pronajem/byt/2+1/praha-strasnice-bechovicka/26689372
201,26902364,"Bieblova, Praha 5 - Smíchov",CZ,50.0659493670951,14.4010508950257,line,44.0,9900.0,CZK,Pronájem bytu 2+1 44 m²,apartment,rent,https://www.sreality.cz/detail/pronajem/byt/2+1/praha-smichov-bieblova/26902364
203,27254364,"Italská, Praha 2 - Vinohrady",CZ,50.08012457182551,14.437978732229302,line,107.0,53000.0,CZK,Pronájem bytu 3+kk 107 m²,apartment,rent,https://www.sreality.cz/detail/pronajem/byt/3+kk/praha-vinohrady-italska/27254364
204,27896924,"Masarykova, Brno - Brno-město",CZ,49.1932105124187,16.6097560897328,line,82.0,20000.0,CZK,Pronájem bytu 2+1 82 m²,apartment,rent,https://www.sreality.cz/detail/pronajem/byt/2+1/brno-brno-mesto-masarykova/27896924
207,28417116,"Studánka, okres Tachov",CZ,49.78141,12.602032000000001,point,75.0,8500.0,CZK,Pronájem bytu 2+kk 75 m²,apartment,rent,https://www.sreality.cz/detail/pronajem/byt/2+kk/studanka-studanka-/28417116
210,28643164,"Roháčova, Praha 3 - Žižkov",CZ,50.086608340278595,14.453569628597801,point,35.0,4000.0,CZK,Pronájem bytu 1+1 35 m²,apartment,rent,https://www.sreality.cz/detail/pronajem/byt/1+1/praha-zizkov-rohacova/28643164
211,28647004,"Vlkova, Praha 3 - Žižkov",CZ,50.0835190970994,14.4470923908433,line,75.0,22000.0,CZK,Pronájem bytu 3+1 75 m²,apartment,rent,https://www.sreality.cz/detail/pronajem/byt/3+1/praha-zizkov-vlkova/28647004
213,29007452,"Jungmannova, Praha 1 - Nové Město",CZ,50.081298162511104,14.4224242280321,line,77.0,39000.0,CZK,Pronájem bytu 2+kk 77 m²,apartment,rent,https://www.sreality.cz/detail/pronajem/byt/2+kk/praha-nove-mesto-jungmannova/29007452
218,30452828,"Blahníkova, Praha 3 - Žižkov",CZ,50.0855484008789,14.448450088501,point,51.0,17500.0,CZK,Pronájem bytu 2+kk 51 m²,apartment,rent,https://www.sreality.cz/detail/pronajem/byt/2+kk/praha-zizkov-blahnikova/30452828
221,30486364,"Belgická, Praha - Vinohrady",CZ,50.0726300672706,14.4361486954777,line,63.0,21000.0,CZK,Pronájem bytu 2+kk 63 m²,apartment,rent,https://www.sreality.cz/detail/pronajem/byt/2+kk/praha-vinohrady-belgicka/30486364
222,30695260,"Kmochova, Praha 5 - Smíchov",CZ,50.072540283203104,14.396120071411099,point,108.0,36000.0,CZK,Pronájem bytu 5+kk 108 m²,apartment,rent,https://www.sreality.cz/detail/pronajem/byt/5+kk/praha-smichov-kmochova/30695260
223,31099996,"Polská, Praha 2 - Vinohrady",CZ,50.0784188124383,14.4433616422342,line,45.0,12000.0,CZK,Pronájem bytu 2+1 45 m²,apartment,rent,https://www.sreality.cz/detail/pronajem/byt/2+1/praha-vinohrady-polska/31099996
224,31120988,"Jungmannova, Praha 1 - Nové Město",CZ,50.081298162511104,14.4224242280321,line,117.0,80000.0,CZK,Pronájem bytu 4+1 117 m² (Podkrovní),apartment,rent,https://www.sreality.cz/detail/pronajem/byt/4+1/praha-nove-mesto-jungmannova/31120988
228,31497308,"Nad višňovkou, Praha 6 - Ruzyně",CZ,50.0775,14.3176,point,156.0,40000.0,CZK,Pronájem bytu 4+kk 156 m²,apartment,rent,https://www.sreality.cz/detail/pronajem/byt/4+kk/praha-ruzyne-nad-visnovkou/31497308
230,31571036,"Tolstého, Ústí nad Labem - Střekov",CZ,50.647773293921496,14.054155520824699,line,21.0,4500.0,CZK,Pronájem bytu 1+kk 21 m²,apartment,rent,https://www.sreality.cz/detail/pronajem/byt/1+kk/usti-nad-labem-strekov-tolsteho/31571036
231,32382812,"Dělnická, Praha 7 - Holešovice",CZ,50.10309960000001,14.447362599999998,point,64.0,23000.0,CZK,Pronájem bytu 2+kk 64 m²,apartment,rent,https://www.sreality.cz/detail/pronajem/byt/2+kk/praha-holesovice-delnicka/32382812
232,32378716,"Valentinská, Praha 1 - Staré Město",CZ,50.088196532565604,14.416325522776502,point,64.0,17000.0,CZK,Pronájem bytu 2+1 64 m²,apartment,rent,https://www.sreality.cz/detail/pronajem/byt/2+1/praha-stare-mesto-valentinska/32378716
235,32218204,"Alšova, Znojmo",CZ,48.857013268100005,16.0556076558,line,91.0,13000.0,CZK,Pronájem bytu 3+1 91 m²,apartment,rent,https://www.sreality.cz/detail/pronajem/byt/3+1/znojmo-znojmo-alsova/32218204
236,32530268,"Uhříněveská, Praha 10 - Strašnice",CZ,50.0656742210092,14.5065777427473,point,65.0,17000.0,CZK,Pronájem bytu 2+1 65 m²,apartment,rent,https://www.sreality.cz/detail/pronajem/byt/2+1/praha-strasnice-uhrineveska/32530268
237,33336412,"Hamerská, Litvínov - Hamr",CZ,50.59372557434629,13.5736744558224,point,52.0,6900.0,CZK,Pronájem bytu 2+1 52 m²,apartment,rent,https://www.sreality.cz/detail/pronajem/byt/2+1/litvinov-hamr-hamerska/33336412
241,33832796,"Zvěřinova, Praha 3 - Strašnice",CZ,50.08450515274,14.485477532109899,line,59.0,13000.0,CZK,Pronájem bytu 2+kk 59 m²,apartment,rent,https://www.sreality.cz/detail/pronajem/byt/2+kk/praha-strasnice-zverinova/33832796
242,33840988,"Legerova, Praha 2 - Nové Město",CZ,50.071332858709795,14.430501130994301,point,25.0,247500.0,CZK,Pronájem bytu 1+kk 25 m²,apartment,rent,https://www.sreality.cz/detail/pronajem/byt/1+kk/praha-nove-mesto-legerova/33840988
244,33914716,"Francouzská, Brno - Zábrdovice",CZ,49.202108724506594,16.6208463269831,line,17.0,6990.0,CZK,Pronájem bytu 1+kk 17 m²,apartment,rent,https://www.sreality.cz/detail/pronajem/byt/1+kk/brno-zabrdovice-francouzska/33914716
245,34839644,"Seifertova, Praha 3 - Žižkov",CZ,50.08516730167789,14.4429913542029,line,65.0,15800.0,CZK,Pronájem bytu 2+1 65 m²,apartment,rent,https://www.sreality.cz/detail/pronajem/byt/2+1/praha-zizkov-seifertova/34839644
247,35082076,"Na Břehu, Praha 9 - Vysočany",CZ,50.108218,14.499135999999998,line,62.0,13500.0,CZK,Pronájem bytu 2+1 62 m²,apartment,rent,https://www.sreality.cz/detail/pronajem/byt/2+1/praha-vysocany-na-brehu/35082076
253,35995228,Praha 1 - Nové Město,CZ,50.0762900657347,14.4167285062604,polygon,79.0,25000.0,CZK,Pronájem bytu 2+kk 79 m²,apartment,rent,https://www.sreality.cz/detail/pronajem/byt/2+kk/praha-nove-mesto-/35995228
254,36084828,"Plzeň - Doubravka, okres Plzeň-město",CZ,49.7562314632954,13.4204539988221,polygon,111.0,20000.0,CZK,Pronájem bytu 4+kk 111 m²,apartment,rent,https://www.sreality.cz/detail/pronajem/byt/4+kk/plzen-doubravka-/36084828
255,35815260,"Sladkovského, Pardubice - Zelené Předměstí",CZ,50.034341088167714,15.774148364449198,line,30.0,10000.0,CZK,Pronájem bytu 2+kk 30 m²,apartment,rent,https://www.sreality.cz/detail/pronajem/byt/2+kk/pardubice-zelene-predmesti-sladkovskeho/35815260
256,36281436,"Vrchlického, Jihlava",CZ,49.396792368721286,15.580372191421402,point,85.0,13000.0,CZK,Pronájem bytu 3+kk 85 m²,apartment,rent,https://www.sreality.cz/detail/pronajem/byt/3+kk/jihlava-jihlava-vrchlickeho/36281436
257,36482140,Praha 1 - Nové Město,CZ,50.0762900657347,14.4167285062604,polygon,78.0,29000.0,CZK,Pronájem bytu 2+1 78 m²,apartment,rent,https://www.sreality.cz/detail/pronajem/byt/2+1/praha-nove-mesto-/36482140
258,36908636,"Břevnovská, Praha 6 - Břevnov",CZ,50.0846481323242,14.364239692688,point,70.0,16500.0,CZK,Pronájem bytu 2+1 70 m²,apartment,rent,https://www.sreality.cz/detail/pronajem/byt/2+1/praha-brevnov-brevnovska/36908636
259,36875356,"Rostislavova, Praha 4 - Nusle",CZ,50.062905117437104,14.445583555088401,line,41.0,15900.0,CZK,Pronájem bytu 2+kk 41 m²,apartment,rent,https://www.sreality.cz/detail/pronajem/byt/2+kk/praha-nusle-rostislavova/36875356
263,37076060,"U Parku, Ostrava - Moravská Ostrava",CZ,49.850358339875,18.2855892018558,line,33.0,6200.0,CZK,Pronájem bytu 1+kk 33 m²,apartment,rent,https://www.sreality.cz/detail/pronajem/byt/1+kk/ostrava-moravska-ostrava-u-parku/37076060
264,37031772,"Za Mototechnou, Praha 5 - Stodůlky",CZ,50.061980972928886,14.328252183257101,line,90.0,24000.0,CZK,Pronájem bytu 3+kk 90 m²,apartment,rent,https://www.sreality.cz/detail/pronajem/byt/3+kk/praha-stodulky-za-mototechnou/37031772
268,37633884,"Ruská, Holýšov",CZ,49.590003948427295,13.1048576230641,point,47.0,9300.0,CZK,Pronájem bytu 2+kk 47 m²,apartment,rent,https://www.sreality.cz/detail/pronajem/byt/2+kk/holysov-holysov-ruska/37633884
269,37919836,"Senovážné náměstí, Praha 1 - Nové Město",CZ,50.086132,14.431403,point,84.0,33000.0,CZK,Pronájem bytu 2+kk 84 m²,apartment,rent,https://www.sreality.cz/detail/pronajem/byt/2+kk/praha-nove-mesto-senovazne-namesti/37919836
271,38465116,"Břevnovská, Praha 6 - Břevnov",CZ,50.08465,14.364317000000002,point,129.0,55000.0,CZK,Pronájem bytu 4+kk 129 m²,apartment,rent,https://www.sreality.cz/detail/pronajem/byt/4+kk/praha-brevnov-brevnovska/38465116
273,38870876,"Lesní, Milovice - Mladá",CZ,50.2309970917033,14.872063456636601,point,43.0,16000.0,CZK,Pronájem bytu 2+kk 43 m²,apartment,rent,https://www.sreality.cz/detail/pronajem/byt/2+kk/milovice-mlada-lesni/38870876
274,39071580,"Pod Svahem, Tachov",CZ,49.79878,12.636192,point,69.0,12000.0,CZK,Pronájem bytu 3+1 69 m²,apartment,rent,https://www.sreality.cz/detail/pronajem/byt/3+1/tachov-tachov-pod-svahem/39071580
277,40083292,"Hlubočepská, Praha 5 - Hlubočepy",CZ,50.04158020019529,14.3976001739502,point,52.0,17000.0,CZK,Pronájem bytu 2+kk 52 m²,apartment,rent,https://www.sreality.cz/detail/pronajem/byt/2+kk/praha-hlubocepy-hlubocepska/40083292
281,40602716,"Eduarda Hamburgera, Olomouc",CZ,49.586479101552285,17.2446200740854,point,55.0,12000.0,CZK,Pronájem bytu 2+kk 55 m²,apartment,rent,https://www.sreality.cz/detail/pronajem/byt/2+kk/olomouc-olomouc-eduarda-hamburgera/40602716
284,40803420,"Podkovářská, Praha - Vysočany",CZ,50.103560386017,14.5129533289425,line,52.0,14900.0,CZK,Pronájem bytu 2+kk 52 m²,apartment,rent,https://www.sreality.cz/detail/pronajem/byt/2+kk/praha-vysocany-podkovarska/40803420
287,40877148,"Londýnská, Praha 2 - Vinohrady",CZ,50.073612946482704,14.4342233716992,line,34.0,12000.0,CZK,Pronájem bytu 1+1 34 m²,apartment,rent,https://www.sreality.cz/detail/pronajem/byt/1+1/praha-vinohrady-londynska/40877148
290,41340764,"Tupolevova, Praha 9 - Letňany",CZ,50.1366644444,14.5049572222,line,78.0,17900.0,CZK,Pronájem bytu 3+kk 78 m²,apartment,rent,https://www.sreality.cz/detail/pronajem/byt/3+kk/praha-letnany-tupolevova/41340764
291,41593948,"Mánesova, Praha 2 - Vinohrady",CZ,50.077944594099996,14.441416104000002,point,105.0,31000.0,CZK,Pronájem bytu 3+1 105 m²,apartment,rent,https://www.sreality.cz/detail/pronajem/byt/3+1/praha-vinohrady-manesova/41593948
293,41750108,"Kralovická, Plzeň - Bolevec",CZ,49.7789346775908,13.3652722247226,line,76.0,13500.0,CZK,Pronájem bytu 4+1 76 m²,apartment,rent,https://www.sreality.cz/detail/pronajem/byt/4+1/plzen-bolevec-kralovicka/41750108
294,41807708,"Tkalcovská, Jirkov",CZ,50.501133,13.449005999999999,point,40.0,8000.0,CZK,Pronájem bytu 2+kk 40 m²,apartment,rent,https://www.sreality.cz/detail/pronajem/byt/2+kk/jirkov-jirkov-tkalcovska/41807708
295,42184540,"Edisonova, Chomutov",CZ,50.45605087280271,13.4092302322388,point,73.0,12000.0,CZK,Pronájem bytu 3+kk 73 m²,apartment,rent,https://www.sreality.cz/detail/pronajem/byt/3+kk/chomutov-chomutov-edisonova/42184540
297,41959004,"Vejvodova, Praha 1 - Staré Město",CZ,50.084537378858,14.4191639174225,point,50.0,16000.0,CZK,Pronájem bytu 2+kk 50 m²,apartment,rent,https://www.sreality.cz/detail/pronajem/byt/2+kk/praha-stare-mesto-vejvodova/41959004
299,42209116,"Těšnov, Praha 1 - Nové Město",CZ,50.09228134155271,14.4364595413208,point,98.0,20000.0,CZK,Pronájem bytu 4+kk 98 m²,apartment,rent,https://www.sreality.cz/detail/pronajem/byt/4+kk/praha-nove-mesto-tesnov/42209116
300,42299228,"Lamačova, Praha 5 - Hlubočepy",CZ,50.034824165146205,14.3806015786343,point,80.0,17600.0,CZK,Pronájem bytu 3+1 80 m²,apartment,rent,https://www.sreality.cz/detail/pronajem/byt/3+1/praha-hlubocepy-lamacova/42299228
304,43007836,"17. listopadu, Chomutov",CZ,50.48009872436521,13.4170503616333,point,78.0,8300.0,CZK,Pronájem bytu 3+1 78 m²,apartment,rent,https://www.sreality.cz/detail/pronajem/byt/3+1/chomutov-chomutov-17--listopadu/43007836
306,43736924,"Lužická, Rokycany",CZ,49.737809451195496,13.579254550720599,line,40.0,10000.0,CZK,Pronájem bytu 1+kk 40 m²,apartment,rent,https://www.sreality.cz/detail/pronajem/byt/1+kk/rokycany--luzicka/43736924
308,43863900,"Šejbalové, Praha 5 - Hlubočepy",CZ,50.02978133756471,14.3746514864642,point,32.0,14000.0,CZK,Pronájem bytu 1+1 32 m²,apartment,rent,https://www.sreality.cz/detail/pronajem/byt/1+1/praha-hlubocepy-sejbalove/43863900
310,43949916,"Laubova, Praha 3 - Vinohrady",CZ,50.0789605637653,14.450032002058801,line,95.0,68746.0,CZK,Pronájem bytu 3+kk 95 m²,apartment,rent,https://www.sreality.cz/detail/pronajem/byt/3+kk/praha-vinohrady-laubova/43949916
312,44211804,"Štupartská, Praha 1 - Staré Město",CZ,50.087677,14.423442000000001,point,145.0,65000.0,CZK,Pronájem bytu 4+1 145 m²,apartment,rent,https://www.sreality.cz/detail/pronajem/byt/4+1/praha-stare-mesto-stupartska/44211804
313,44486492,"U Rybníka, Troubsko",CZ,49.178907,16.499587,line,45.0,11000.0,CZK,Pronájem bytu 2+1 45 m²,apartment,rent,https://www.sreality.cz/detail/pronajem/byt/2+1/troubsko-troubsko-u-rybnika/44486492
316,44900188,"Odborů, Praha 2 - Nové Město",CZ,50.077622078990096,14.418621654700804,line,107.0,29000.0,CZK,Pronájem bytu 3+1 107 m²,apartment,rent,https://www.sreality.cz/detail/pronajem/byt/3+1/praha-nove-mesto-odboru/44900188
317,44940380,"U první baterie, Praha 6 - Břevnov",CZ,50.088783369994296,14.3656563655334,point,59.0,13800.0,CZK,Pronájem bytu 2+1 59 m²,apartment,rent,https://www.sreality.cz/detail/pronajem/byt/2+1/praha-brevnov-u-prvni-baterie/44940380
319,45333596,"Herbenova, Kladno - Kročehlavy",CZ,50.13621809086571,14.111037105838099,point,48.0,12000.0,CZK,Pronájem bytu 2+1 48 m²,apartment,rent,https://www.sreality.cz/detail/pronajem/byt/2+1/kladno-krocehlavy-herbenova/45333596
320,45502300,"Dobrovského, Praha 7 - Holešovice",CZ,50.098789000000004,14.422814,point,55.0,20500.0,CZK,Pronájem bytu 2+kk 55 m²,apartment,rent,https://www.sreality.cz/detail/pronajem/byt/2+kk/praha-holesovice-dobrovskeho/45502300
321,45576028,"Možného, Praha 6 - Ruzyně",CZ,50.077895067498,14.306999057664699,line,67.0,15000.0,CZK,Pronájem bytu 2+1 67 m²,apartment,rent,https://www.sreality.cz/detail/pronajem/byt/2+1/praha-ruzyne-mozneho/45576028
322,45460572,"Žebětínská, Brno - Kohoutovice",CZ,49.1950183417951,16.5233979852257,line,75.0,14000.0,CZK,Pronájem bytu 3+1 75 m²,apartment,rent,https://www.sreality.cz/detail/pronajem/byt/3+1/brno-kohoutovice-zebetinska/45460572
324,45657180,"Jugoslávská, Brno - Černá Pole",CZ,49.20490149078201,16.622973961180598,point,60.0,10400.0,CZK,Pronájem bytu 2+kk 60 m² (Podkrovní),apartment,rent,https://www.sreality.cz/detail/pronajem/byt/2+kk/brno-cerna-pole-jugoslavska/45657180
325,45670236,"Lišanská, Praha 6 - Ruzyně",CZ,50.077514932,14.3072524353,point,40.0,12500.0,CZK,Pronájem bytu 2+kk 40 m²,apartment,rent,https://www.sreality.cz/detail/pronajem/byt/2+kk/praha-ruzyne-lisanska/45670236
326,46026332,"Štefánikova, Praha 5 - Smíchov",CZ,50.0785789,14.4036598,point,121.0,29900.0,CZK,Pronájem bytu 3+kk 121 m²,apartment,rent,https://www.sreality.cz/detail/pronajem/byt/3+kk/praha-smichov-stefanikova/46026332
328,46378076,"Pavlouskova, Ostrava - Poruba",CZ,49.839723496516896,18.1613679302038,line,38.0,7800.0,CZK,Pronájem bytu 1+1 38 m²,apartment,rent,https://www.sreality.cz/detail/pronajem/byt/1+1/ostrava-poruba-pavlouskova/46378076
329,46296668,"Moravská, Praha 2 - Vinohrady",CZ,50.0744197106795,14.444224197427001,line,95.0,38000.0,CZK,Pronájem bytu 3+kk 95 m²,apartment,rent,https://www.sreality.cz/detail/pronajem/byt/3+kk/praha-vinohrady-moravska/46296668
332,47295580,"Chudenická, Praha 10 - Hostivař",CZ,50.0458675,14.518867199999999,point,50.0,11000.0,CZK,Pronájem bytu 2+kk 50 m²,apartment,rent,https://www.sreality.cz/detail/pronajem/byt/2+kk/praha-hostivar-chudenicka/47295580
335,46775388,"Na Vápenicích, Plzeň - Černice",CZ,49.6969202796544,13.4182352205921,line,33.0,8500.0,CZK,Pronájem bytu 1+kk 33 m²,apartment,rent,https://www.sreality.cz/detail/pronajem/byt/1+kk/plzen-cernice-na-vapenicich/46775388
336,47456092,"U páté baterie, Praha 6",CZ,50.091148,14.36715,point,43.0,13000.0,CZK,Pronájem bytu 2+kk 43 m²,apartment,rent,https://www.sreality.cz/detail/pronajem/byt/2+kk/praha-praha-6-u-pate-baterie/47456092
338,47808348,"Metelkova, Kuřim",CZ,49.2961103908634,16.5453667623005,line,115.0,17990.0,CZK,Pronájem bytu 3+kk 115 m² (Mezonet),apartment,rent,https://www.sreality.cz/detail/pronajem/byt/3+kk/kurim-kurim-metelkova/47808348
341,48135772,"Dlouhá, Žatec",CZ,50.32984468936271,13.545821964926601,line,130.0,15000.0,CZK,Pronájem bytu 4+1 130 m²,apartment,rent,https://www.sreality.cz/detail/pronajem/byt/4+1/zatec-zatec-dlouha/48135772
342,48938844,"Petrohradská, Praha 10 - Vršovice",CZ,50.0654340475211,14.452499536902199,point,30.0,4000.0,CZK,Pronájem bytu 1+kk 30 m²,apartment,rent,https://www.sreality.cz/detail/pronajem/byt/1+kk/praha-vrsovice-petrohradska/48938844
345,49098332,"Mánesova, Praha 2 - Vinohrady",CZ,50.0778452371055,14.441404714602301,line,108.0,30000.0,CZK,Pronájem bytu 3+1 108 m²,apartment,rent,https://www.sreality.cz/detail/pronajem/byt/3+1/praha-vinohrady-manesova/49098332
346,49221468,"Plzeňská, Praha 5 - Košíře",CZ,50.0710490441453,14.3839738286488,point,35.0,9900.0,CZK,Pronájem bytu 1+kk 35 m²,apartment,rent,https://www.sreality.cz/detail/pronajem/byt/1+kk/praha-kosire-plzenska/49221468
347,49385308,"Čechova, Plzeň - Jižní Předměstí",CZ,49.73336666666,13.37294277777,point,25.0,7000.0,CZK,Pronájem bytu 1+kk 25 m²,apartment,rent,https://www.sreality.cz/detail/pronajem/byt/1+kk/plzen-jizni-predmesti-cechova/49385308
350,49781852,"Na Okruhu, Praha 4 - Písnice",CZ,50.0007083333,14.4625216667,line,69.0,15000.0,CZK,Pronájem bytu 3+kk 69 m²,apartment,rent,https://www.sreality.cz/detail/pronajem/byt/3+kk/praha-pisnice-na-okruhu/49781852
355,50510940,"Čechova, Chomutov",CZ,50.4562110900879,13.4129800796509,point,50.0,8000.0,CZK,Pronájem bytu 2+1 50 m²,apartment,rent,https://www.sreality.cz/detail/pronajem/byt/2+1/chomutov-chomutov-cechova/50510940
356,50560860,"Čs. mládeže, Most",CZ,50.49605800000001,13.633789000000002,point,54.0,8500.0,CZK,Pronájem bytu 2+1 54 m²,apartment,rent,https://www.sreality.cz/detail/pronajem/byt/2+1/most-most-cs--mladeze/50560860
358,51068508,"Kyjická, Chomutov",CZ,50.477686955833796,13.418354689554805,point,36.0,5300.0,CZK,Pronájem bytu 1+1 36 m²,apartment,rent,https://www.sreality.cz/detail/pronajem/byt/1+1/chomutov-chomutov-kyjicka/51068508
359,50888540,"Marie Cibulkové, Praha 4 - Nusle",CZ,50.0593091748245,14.428053454308099,line,57.0,13999.0,CZK,Pronájem bytu 2+1 57 m²,apartment,rent,https://www.sreality.cz/detail/pronajem/byt/2+1/praha-nusle-marie-cibulkove/50888540
361,51318620,"Na Nivách, Jablonné v Podještědí",CZ,50.762137,14.762568,line,24.0,5000.0,CZK,Pronájem bytu 2+kk 24 m²,apartment,rent,https://www.sreality.cz/detail/pronajem/byt/2+kk/jablonne-v-podjestedi-jablonne-v-podjestedi-na-nivach/51318620
363,51470172,"Budějovická, Praha 4 - Krč",CZ,50.0421238182205,14.4597276272701,point,100.0,22000.0,CZK,Pronájem bytu 4+kk 100 m²,apartment,rent,https://www.sreality.cz/detail/pronajem/byt/4+kk/praha-krc-budejovicka/51470172
365,51683164,"Dlouhá, Nový Jičín",CZ,49.5956522075269,17.9977615469123,line,65.0,11000.0,CZK,Pronájem bytu 3+1 65 m²,apartment,rent,https://www.sreality.cz/detail/pronajem/byt/3+1/novy-jicin-novy-jicin-dlouha/51683164
366,51777372,"nám. ČSA, Moravské Budějovice",CZ,49.051373686121295,15.810717686559501,line,40.0,8500.0,CZK,Pronájem bytu 2+kk 40 m²,apartment,rent,https://www.sreality.cz/detail/pronajem/byt/2+kk/moravske-budejovice-moravske-budejovice-nam--csa/51777372
367,51879004,"Zimmlerova, Ostrava - Zábřeh",CZ,49.80972965300001,18.2331186061,point,44.0,7300.0,CZK,Pronájem bytu 2+1 44 m²,apartment,rent,https://www.sreality.cz/detail/pronajem/byt/2+1/ostrava-zabreh-zimmlerova/51879004
372,52706908,"Bulharská, Praha 10 - Vršovice",CZ,50.07176361111,14.461091111110001,point,55.0,17000.0,CZK,Pronájem bytu 3+kk 55 m²,apartment,rent,https://www.sreality.cz/detail/pronajem/byt/3+kk/praha-vrsovice-bulharska/52706908
379,52915804,"Nad Palatou, Praha 5 - Smíchov",CZ,50.07741279957,14.378159905195599,line,191.0,55000.0,CZK,Pronájem bytu 5+1 191 m²,apartment,rent,https://www.sreality.cz/detail/pronajem/byt/5+1/praha-smichov-nad-palatou/52915804
382,53714012,"Mutěnická, Brno - Židenice",CZ,49.2034949902254,16.657424126280198,line,28.0,11500.0,CZK,Pronájem bytu 1+kk 28 m² (Loft),apartment,rent,https://www.sreality.cz/detail/pronajem/byt/1+kk/brno-zidenice-mutenicka/53714012
383,54017628,"Křížová, Praha 5 - Smíchov",CZ,50.0627593994141,14.4051103591919,point,19.0,8500.0,CZK,Pronájem bytu 1+kk 19 m²,apartment,rent,https://www.sreality.cz/detail/pronajem/byt/1+kk/praha-smichov-krizova/54017628
385,54226780,"Krkonošská, Praha 2 - Vinohrady",CZ,50.0798405214,14.445420332000001,point,127.0,30000.0,CZK,Pronájem bytu 4+kk 127 m²,apartment,rent,https://www.sreality.cz/detail/pronajem/byt/4+kk/praha-vinohrady-krkonosska/54226780
387,54353756,"Družicová, Praha 6 - Ruzyně",CZ,50.0918441569547,14.305582636758402,line,20.0,8500.0,CZK,Pronájem  pokoje 20 m²,apartment,rent,https://www.sreality.cz/detail/pronajem/byt/pokoj/praha-ruzyne-druzicova/54353756
388,54992732,"Štítného, Praha 3 - Žižkov",CZ,50.0851893558074,14.4509738041644,line,40.0,12580.0,CZK,Pronájem bytu 1+1 40 m²,apartment,rent,https://www.sreality.cz/detail/pronajem/byt/1+1/praha-zizkov-stitneho/54992732
390,55148380,"Rooseveltova, Litvínov - Horní Litvínov",CZ,50.600486527996395,13.610586806145802,point,61.0,5041.0,CZK,Pronájem bytu 2+1 61 m²,apartment,rent,https://www.sreality.cz/detail/pronajem/byt/2+1/litvinov-horni-litvinov-rooseveltova/55148380
391,55791452,"Černého, Brno - Bystrc",CZ,49.215255160359604,16.524192720718602,line,75.0,15900.0,CZK,Pronájem bytu 3+1 75 m²,apartment,rent,https://www.sreality.cz/detail/pronajem/byt/3+1/brno-bystrc-cerneho/55791452
394,55876700,"Nerudova, Brno - Veveří",CZ,49.20610127356879,16.5952110236809,line,85.0,13990.0,CZK,Pronájem bytu 2+1 85 m²,apartment,rent,https://www.sreality.cz/detail/pronajem/byt/2+1/brno-veveri-nerudova/55876700
395,55992156,"Foerstrova, Olomouc - Nová Ulice",CZ,49.59021351279822,17.2375116089808,line,35.0,9600.0,CZK,Pronájem bytu 1+1 35 m²,apartment,rent,https://www.sreality.cz/detail/pronajem/byt/1+1/olomouc-nova-ulice-foerstrova/55992156
397,56262492,"Na Kozačce, Praha 2 - Vinohrady",CZ,50.071857,14.441967000000002,point,135.0,38000.0,CZK,Pronájem bytu 4+kk 135 m²,apartment,rent,https://www.sreality.cz/detail/pronajem/byt/4+kk/praha-vinohrady-na-kozacce/56262492
398,56597596,"Na výtoni, Praha 2 - Nové Město",CZ,50.069309000000004,14.41673,point,48.0,13500.0,CZK,Pronájem bytu 2+kk 48 m²,apartment,rent,https://www.sreality.cz/detail/pronajem/byt/2+kk/praha-nove-mesto-na-vytoni/56597596
400,56770140,"Máchova, Praha 2 - Vinohrady",CZ,50.072052,14.4414272,point,40.0,21000.0,CZK,Pronájem bytu 1+1 40 m²,apartment,rent,https://www.sreality.cz/detail/pronajem/byt/1+1/praha-vinohrady-machova/56770140
401,56827740,"V Jirchářích, Praha 1 - Nové Město",CZ,50.0801125,14.417721700000001,point,199.0,55000.0,CZK,Pronájem bytu 4+kk 199 m²,apartment,rent,https://www.sreality.cz/detail/pronajem/byt/4+kk/praha-nove-mesto-v-jircharich/56827740
402,57225052,"Horní náměstí, Humpolec",CZ,49.5415301329278,15.3602592024999,point,27.0,8500.0,CZK,Pronájem bytu 1+kk 27 m²,apartment,rent,https://www.sreality.cz/detail/pronajem/byt/1+kk/humpolec-humpolec-horni-namesti/57225052
403,56389468,"Budějovická, Praha 4 - Krč",CZ,50.039713489078,14.4584272779964,point,22.0,9500.0,CZK,Pronájem bytu 1+kk 22 m²,apartment,rent,https://www.sreality.cz/detail/pronajem/byt/1+kk/praha-krc-budejovicka/56389468
404,57798492,"Magisterská, Plzeň",CZ,49.7276369444,13.3546233333,line,46.0,14000.0,CZK,Pronájem bytu 2+1 46 m²,apartment,rent,https://www.sreality.cz/detail/pronajem/byt/2+1/plzen--magisterska/57798492
406,57711708,"Tovární, Ostrava - Mariánské Hory",CZ,49.82654838831451,18.253094831422104,line,25.0,6700.0,CZK,Pronájem bytu 1+kk 25 m²,apartment,rent,https://www.sreality.cz/detail/pronajem/byt/1+kk/ostrava-marianske-hory-tovarni/57711708
407,57433948,"Počernická, Praha 10 - Malešice",CZ,50.08137944444,14.49911055555,point,39.0,12990.0,CZK,Pronájem bytu 1+kk 39 m²,apartment,rent,https://www.sreality.cz/detail/pronajem/byt/1+kk/praha-malesice-pocernicka/57433948
408,58003292,"K Prelátům, Praha 6 - Přední Kopanina",CZ,50.118385294596,14.297506848681099,point,92.0,18000.0,CZK,Pronájem bytu atypické 92 m²,apartment,rent,https://www.sreality.cz/detail/pronajem/byt/atypicky/praha-predni-kopanina-k-prelatum/58003292
409,57941596,"Vlašská, Praha 1 - Malá Strana",CZ,50.0869541370173,14.3968602552667,line,75.0,29000.0,CZK,Pronájem bytu 3+kk 75 m²,apartment,rent,https://www.sreality.cz/detail/pronajem/byt/3+kk/praha-mala-strana-vlasska/57941596
410,58432604,"Česká, Praha 5 - Košíře",CZ,50.0638900040084,14.382875722619,line,63.0,11890.0,CZK,Pronájem bytu 2+1 63 m²,apartment,rent,https://www.sreality.cz/detail/pronajem/byt/2+1/praha-kosire-ceska/58432604
411,58633308,"tř. Osvobození, Karviná - Nové Město",CZ,49.8694675,18.535615277778,point,50.0,4400.0,CZK,Pronájem bytu 1+1 50 m²,apartment,rent,https://www.sreality.cz/detail/pronajem/byt/1+1/karvina-nove-mesto-tr--osvobozeni/58633308
413,58646364,"Ciolkovského, Praha 6 - Ruzyně",CZ,50.0891494428551,14.3064655932715,line,43.0,12000.0,CZK,Pronájem bytu 2+kk 43 m²,apartment,rent,https://www.sreality.cz/detail/pronajem/byt/2+kk/praha-ruzyne-ciolkovskeho/58646364
414,58720092,"Elplova, Brno - Líšeň",CZ,49.2097282409668,16.6764297485352,point,77.0,14000.0,CZK,Pronájem bytu 3+1 77 m²,apartment,rent,https://www.sreality.cz/detail/pronajem/byt/3+1/brno-lisen-elplova/58720092
416,58855260,"Husova, Chrudim - Chrudim III",CZ,49.949361181846506,15.791192287547199,point,38.0,6000.0,CZK,Pronájem bytu 1+kk 38 m²,apartment,rent,https://www.sreality.cz/detail/pronajem/byt/1+kk/chrudim-chrudim-iii-husova/58855260
417,58895452,"Františka Hajdy, Ostrava - Hrabůvka",CZ,49.7826994100537,18.2614516621771,line,54.0,10000.0,CZK,Pronájem bytu 3+kk 54 m²,apartment,rent,https://www.sreality.cz/detail/pronajem/byt/3+kk/ostrava-hrabuvka-frantiska-hajdy/58895452
419,59292764,"Šantrochova, Praha 6 - Břevnov",CZ,50.087966775599796,14.3490180946648,line,54.0,11990.0,CZK,Pronájem bytu 2+1 54 m²,apartment,rent,https://www.sreality.cz/detail/pronajem/byt/2+1/praha-brevnov-santrochova/59292764
420,59096156,"Březinova, Praha 8 - Karlín",CZ,50.094298419161504,14.455925089631,point,56.0,16000.0,CZK,Pronájem bytu 2+kk 56 m²,apartment,rent,https://www.sreality.cz/detail/pronajem/byt/2+kk/praha-karlin-brezinova/59096156
422,59473756,"Šubertova, Praha 2 - Vinohrady",CZ,50.0763183296307,14.437498113010301,line,108.0,25000.0,CZK,Pronájem bytu 3+1 108 m²,apartment,rent,https://www.sreality.cz/detail/pronajem/byt/3+1/praha-vinohrady-subertova/59473756
423,59842140,"Ústí nad Labem - Předlice, okres Ústí nad Labem",CZ,50.6585970795928,13.988570383745301,polygon,80.0,5100.0,CZK,Pronájem bytu 3+1 80 m²,apartment,rent,https://www.sreality.cz/detail/pronajem/byt/3+1/usti-nad-labem-predlice-/59842140
428,60857436,"Francouzská, Brno - Zábrdovice",CZ,49.2020797729492,16.6224899291992,point,53.0,11400.0,CZK,Pronájem bytu 2+kk 53 m²,apartment,rent,https://www.sreality.cz/detail/pronajem/byt/2+kk/brno-zabrdovice-francouzska/60857436
430,60533852,"Neklanova, Praha 2 - Vyšehrad",CZ,50.06721695150951,14.4188976815026,point,75.0,20000.0,CZK,Pronájem bytu 3+kk 75 m²,apartment,rent,https://www.sreality.cz/detail/pronajem/byt/3+kk/praha-vysehrad-neklanova/60533852
431,60734556,"Olšanské náměstí, Praha - Žižkov",CZ,50.0821236355317,14.4591991853726,line,42.0,13000.0,CZK,Pronájem bytu 2+kk 42 m²,apartment,rent,https://www.sreality.cz/detail/pronajem/byt/2+kk/praha-zizkov-olsanske-namesti/60734556
432,61370204,"Biskupská, Praha 1 - Nové Město",CZ,50.090622493401696,14.4344318978475,line,132.0,50000.0,CZK,Pronájem bytu 4+1 132 m²,apartment,rent,https://www.sreality.cz/detail/pronajem/byt/4+1/praha-nove-mesto-biskupska/61370204
433,61382492,Praha 5 - Smíchov,CZ,50.0753085253112,14.405656171915199,polygon,60.0,18000.0,CZK,Pronájem bytu 2+kk 60 m²,apartment,rent,https://www.sreality.cz/detail/pronajem/byt/2+kk/praha-smichov-/61382492
435,61812572,"Ječná, Praha 2 - Nové Město",CZ,50.0757386618,14.4229636106,point,84.0,17000.0,CZK,Pronájem bytu 3+kk 84 m²,apartment,rent,https://www.sreality.cz/detail/pronajem/byt/3+kk/praha-nove-mesto-jecna/61812572
437,61578332,"Pod Javory, Blansko",CZ,49.3546867767901,16.6552525425297,line,48.0,8500.0,CZK,Pronájem bytu 2+1 48 m²,apartment,rent,https://www.sreality.cz/detail/pronajem/byt/2+1/blansko-blansko-pod-javory/61578332
440,62656348,"Lublaňská, Praha 2 - Nové Město",CZ,50.071029046731795,14.431978678000199,point,60.0,17500.0,CZK,Pronájem bytu 2+1 60 m²,apartment,rent,https://www.sreality.cz/detail/pronajem/byt/2+1/praha-nove-mesto-lublanska/62656348
442,62115420,"Riegrovo náměstí, Kroměříž",CZ,49.2971039993749,17.3927456554423,line,25.0,7500.0,CZK,Pronájem bytu 1+kk 25 m²,apartment,rent,https://www.sreality.cz/detail/pronajem/byt/1+kk/kromeriz-kromeriz-riegrovo-namesti/62115420
443,62696540,"Plzeňská, Ostrava",CZ,49.8178013667983,18.236889272647602,line,22.0,4800.0,CZK,Pronájem bytu 1+kk 22 m²,apartment,rent,https://www.sreality.cz/detail/pronajem/byt/1+kk/ostrava--plzenska/62696540
447,62824284,"Komenského, Jihlava",CZ,49.3981110266259,15.589150216194,line,42.0,8000.0,CZK,Pronájem bytu 1+1 42 m²,apartment,rent,https://www.sreality.cz/detail/pronajem/byt/1+1/jihlava-jihlava-komenskeho/62824284
455,63868764,"Rokytnice nad Jizerou - Horní Rokytnice, okres Semily",CZ,50.730105933900006,15.454838628900001,point,33.0,7000.0,CZK,Pronájem bytu 1+kk 33 m²,apartment,rent,https://www.sreality.cz/detail/pronajem/byt/1+kk/rokytnice-nad-jizerou-horni-rokytnice-/63868764
458,64462684,"Nádražní, Ostrava - Moravská Ostrava",CZ,49.836078948335,18.2865974589255,point,59.0,8000.0,CZK,Pronájem bytu 2+kk 59 m²,apartment,rent,https://www.sreality.cz/detail/pronajem/byt/2+kk/ostrava-moravska-ostrava-nadrazni/64462684
459,63827804,"Sídliště Za Chlumem, Bílina - Teplické Předměstí",CZ,50.5559646016484,13.7884637092291,line,39.0,5000.0,CZK,Pronájem bytu 1+1 39 m²,apartment,rent,https://www.sreality.cz/detail/pronajem/byt/1+1/bilina-teplicke-predmesti-sidliste-za-chlumem/63827804
460,64221020,"Nezamyslova, Praha 2 - Nusle",CZ,50.065715128161294,14.4268031570154,line,46.0,20500.0,CZK,Pronájem bytu 2+kk 46 m²,apartment,rent,https://www.sreality.cz/detail/pronajem/byt/2+kk/praha-nusle-nezamyslova/64221020
461,64520028,"Vladislavova, Praha 1 - Nové Město",CZ,50.08040620000001,14.420928,point,120.0,36000.0,CZK,Pronájem bytu 3+1 120 m²,apartment,rent,https://www.sreality.cz/detail/pronajem/byt/3+1/praha-nove-mesto-vladislavova/64520028
462,64134236,Praha 2 - Nové Město,CZ,50.0762900657347,14.4167285062604,polygon,33.0,10500.0,CZK,Pronájem bytu 1+kk 33 m²,apartment,rent,https://www.sreality.cz/detail/pronajem/byt/1+kk/praha-nove-mesto-/64134236
463,64573276,"Plzeňská, České Budějovice - České Budějovice 3",CZ,48.98939111111,14.47060944444,point,18.0,7000.0,CZK,Pronájem bytu 1+kk 18 m²,apartment,rent,https://www.sreality.cz/detail/pronajem/byt/1+kk/ceske-budejovice-ceske-budejovice-3-plzenska/64573276
466,65056604,"Křižíkova, Praha 8 - Karlín",CZ,50.0942427869909,14.4583674840453,point,110.0,35000.0,CZK,Pronájem bytu 4+kk 110 m²,apartment,rent,https://www.sreality.cz/detail/pronajem/byt/4+kk/praha-karlin-krizikova/65056604
467,65474396,"Fojtíkova, Rakovník - Rakovník II",CZ,50.109895337880296,13.733336544604098,point,66.0,11000.0,CZK,Pronájem bytu 3+kk 66 m²,apartment,rent,https://www.sreality.cz/detail/pronajem/byt/3+kk/rakovnik-rakovnik-ii-fojtikova/65474396
468,64765788,"Franty Kocourka, Praha 5 - Smíchov",CZ,50.0599878153,14.4032178384,point,75.0,18500.0,CZK,Pronájem bytu 3+kk 75 m²,apartment,rent,https://www.sreality.cz/detail/pronajem/byt/3+kk/praha-smichov-franty-kocourka/64765788
469,65507164,"Uherská, Praha 9 - Vinoř",CZ,50.1431119444,14.576763611099999,point,84.0,15000.0,CZK,Pronájem bytu 3+1 84 m²,apartment,rent,https://www.sreality.cz/detail/pronajem/byt/3+1/praha-vinor-uherska/65507164
470,64544604,"Vídeňská, Olomouc",CZ,49.5906962446986,17.248840622546698,point,60.0,15000.0,CZK,Pronájem bytu 2+1 60 m²,apartment,rent,https://www.sreality.cz/detail/pronajem/byt/2+1/olomouc-olomouc-videnska/64544604
471,65576028,"Na Louži, Praha 10 - Vršovice",CZ,50.063992999999996,14.458178,line,47.0,13000.0,CZK,Pronájem bytu 2+kk 47 m²,apartment,rent,https://www.sreality.cz/detail/pronajem/byt/2+kk/praha-vrsovice-na-louzi/65576028
472,65892188,"U Tří lvů, České Budějovice - České Budějovice 6",CZ,48.971120218360504,14.479090692634099,line,35.0,7500.0,CZK,Pronájem bytu 1+kk 35 m²,apartment,rent,https://www.sreality.cz/detail/pronajem/byt/1+kk/ceske-budejovice-ceske-budejovice-6-u-tri-lvu/65892188
473,66370652,"Citice, okres Sokolov",CZ,50.159278667239896,12.616640475484,point,57.0,4500.0,CZK,Pronájem bytu 2+1 57 m²,apartment,rent,https://www.sreality.cz/detail/pronajem/byt/2+1/citice-citice-/66370652
474,66211676,"Rohanské nábřeží, Praha 8 - Karlín",CZ,50.094530798513496,14.447218366273301,point,64.0,18000.0,CZK,Pronájem bytu 2+kk 64 m²,apartment,rent,https://www.sreality.cz/detail/pronajem/byt/2+kk/praha-karlin-rohanske-nabrezi/66211676
480,67017820,"Otakarova, České Budějovice - České Budějovice 3",CZ,48.97673795330871,14.4802790319529,point,135.0,15000.0,CZK,Pronájem bytu 4+1 135 m²,apartment,rent,https://www.sreality.cz/detail/pronajem/byt/4+1/ceske-budejovice-ceske-budejovice-3-otakarova/67017820
484,67345500,"Irkutská, Praha - Vinohrady",CZ,50.075252095686295,14.484988802672,line,60.0,17500.0,CZK,Pronájem bytu 3+kk 60 m²,apartment,rent,https://www.sreality.cz/detail/pronajem/byt/3+kk/praha-vinohrady-irkutska/67345500
485,67583580,"Na zástřelu, Praha 6 - Břevnov",CZ,50.087667462566,14.3701118533924,point,34.0,11500.0,CZK,Pronájem bytu 1+1 34 m² (Podkrovní),apartment,rent,https://www.sreality.cz/detail/pronajem/byt/1+1/praha-brevnov-na-zastrelu/67583580
490,67845724,"Mánesova, Praha 2 - Vinohrady",CZ,50.0778452371055,14.441404714602301,line,215.0,75000.0,CZK,Pronájem bytu 5+kk 215 m²,apartment,rent,https://www.sreality.cz/detail/pronajem/byt/5+kk/praha-vinohrady-manesova/67845724
491,67956572,"Za Válcovnou, Ústí nad Labem - Klíše",CZ,50.664390999999995,14.006073,point,46.0,7300.0,CZK,Pronájem bytu 2+1 46 m²,apartment,rent,https://www.sreality.cz/detail/pronajem/byt/2+1/usti-nad-labem-klise-za-valcovnou/67956572
492,67943516,"Hlučkova, Praha 9 - Letňany",CZ,50.1425104269935,14.5229016470775,line,56.0,11500.0,CZK,Pronájem bytu 1+kk 56 m²,apartment,rent,https://www.sreality.cz/detail/pronajem/byt/1+kk/praha-letnany-hluckova/67943516
493,67997532,"Černínova, Praha 3 - Žižkov",CZ,50.088663885492004,14.461673319865401,line,72.0,16000.0,CZK,Pronájem bytu 3+kk 72 m²,apartment,rent,https://www.sreality.cz/detail/pronajem/byt/3+kk/praha-zizkov-cerninova/67997532
495,68336732,"Laštůvkova, Brno - Bystrc",CZ,49.2203162028868,16.524180402369403,line,38.0,10000.0,CZK,Pronájem bytu 1+1 38 m²,apartment,rent,https://www.sreality.cz/detail/pronajem/byt/1+1/brno-bystrc-lastuvkova/68336732
496,68370268,"Bratří Žůrků, Brno - Komárov",CZ,49.1747669096943,16.6291065628006,line,50.0,13500.0,CZK,Pronájem bytu 2+1 50 m²,apartment,rent,https://www.sreality.cz/detail/pronajem/byt/2+1/brno-komarov-bratri-zurku/68370268
499,68463708,"Nechvílova, Praha 4 - Chodov",CZ,50.0244833546,14.4951427481,point,47.0,13000.0,CZK,Pronájem bytu 2+kk 47 m²,apartment,rent,https://www.sreality.cz/detail/pronajem/byt/2+kk/praha-chodov-nechvilova/68463708
501,68747100,"Holčovice - Jelení, okres Bruntál",CZ,50.1376361764566,17.4794530781655,polygon,62.0,5000.0,CZK,Pronájem bytu 3+1 62 m²,apartment,rent,https://www.sreality.cz/detail/pronajem/byt/3+1/holcovice-jeleni-/68747100
503,69304156,"Štěpánská, Praha 1 - Nové Město",CZ,50.077701568603494,14.425149917602502,point,63.0,20880.0,CZK,Pronájem bytu 2+1 63 m²,apartment,rent,https://www.sreality.cz/detail/pronajem/byt/2+1/praha-nove-mesto-stepanska/69304156
505,69184604,"Lípová, Jablonec nad Nisou",CZ,50.7247581,15.165068599999998,point,41.0,6990.0,CZK,Pronájem bytu 2+kk 41 m²,apartment,rent,https://www.sreality.cz/detail/pronajem/byt/2+kk/jablonec-nad-nisou-jablonec-nad-nisou-lipova/69184604
506,69422940,"Na Větrníku, Chrudim - Chrudim IV",CZ,49.956065,15.8149568,point,74.0,13900.0,CZK,Pronájem bytu 3+1 74 m²,apartment,rent,https://www.sreality.cz/detail/pronajem/byt/3+1/chrudim-chrudim-iv-na-vetrniku/69422940
509,69615452,"V Jirchářích, Praha 1 - Nové Město",CZ,50.0798734651597,14.4158794969661,point,110.0,18000.0,CZK,Pronájem bytu 3+kk 110 m²,apartment,rent,https://www.sreality.cz/detail/pronajem/byt/3+kk/praha-nove-mesto-v-jircharich/69615452
512,70106972,"Pařížská, Praha 1 - Josefov",CZ,50.09109013747379,14.4181035520797,point,198.0,100000.0,CZK,Pronájem bytu 5+kk 198 m²,apartment,rent,https://www.sreality.cz/detail/pronajem/byt/5+kk/praha-josefov-parizska/70106972
516,70332252,"Petržílkova, Praha 5 - Stodůlky",CZ,50.05138036505299,14.342618019124,point,43.0,12000.0,CZK,Pronájem bytu 2+kk 43 m²,apartment,rent,https://www.sreality.cz/detail/pronajem/byt/2+kk/praha-stodulky-petrzilkova/70332252
521,71343196,"Thunovská, Praha 1 - Malá Strana",CZ,50.08914481886421,14.4022386373255,point,58.0,20500.0,CZK,Pronájem bytu 3+kk 58 m²,apartment,rent,https://www.sreality.cz/detail/pronajem/byt/3+kk/praha-mala-strana-thunovska/71343196
524,71416924,"Karlova, Praha 1 - Staré Město",CZ,50.085887899999996,14.4164829,point,75.0,18900.0,CZK,Pronájem bytu 3+kk 75 m² (Loft),apartment,rent,https://www.sreality.cz/detail/pronajem/byt/3+kk/praha-stare-mesto-karlova/71416924
525,71925596,"Rooseveltova, Litvínov - Horní Litvínov",CZ,50.6006324693182,13.610560569698801,point,35.0,4310.0,CZK,Pronájem bytu 1+1 35 m²,apartment,rent,https://www.sreality.cz/detail/pronajem/byt/1+1/litvinov-horni-litvinov-rooseveltova/71925596
526,71585628,"Národní, Praha 1 - Nové Město",CZ,50.08202685707961,14.4185128844345,point,110.0,20000.0,CZK,Pronájem bytu 3+1 110 m²,apartment,rent,https://www.sreality.cz/detail/pronajem/byt/3+1/praha-nove-mesto-narodni/71585628
529,72818524,"Janáčkovo nábřeží, Praha 5 - Smíchov",CZ,50.0735131046,14.4095324873,point,169.0,55000.0,CZK,Pronájem bytu 4+kk 169 m²,apartment,rent,https://www.sreality.cz/detail/pronajem/byt/4+kk/praha-smichov-janackovo-nabrezi/72818524
531,72264796,"Táborská, Praha 4 - Nusle",CZ,50.0588716,14.436217000000001,point,56.0,11990.0,CZK,Pronájem bytu 2+1 56 m²,apartment,rent,https://www.sreality.cz/detail/pronajem/byt/2+1/praha-nusle-taborska/72264796
534,73506652,Praha 1 - Vinohrady,CZ,50.07545536137261,14.438060825206303,polygon,239.0,49000.0,CZK,Pronájem bytu 4+1 239 m² (Mezonet),apartment,rent,https://www.sreality.cz/detail/pronajem/byt/4+1/praha-vinohrady-/73506652
535,73547356,"U Zvonařky, Praha 2 - Vinohrady",CZ,50.069545700000006,14.4335413,point,80.0,33000.0,CZK,Pronájem bytu 3+kk 80 m²,apartment,rent,https://www.sreality.cz/detail/pronajem/byt/3+kk/praha-vinohrady-u-zvonarky/73547356
538,74067548,"Sokolovská, Praha 8 - Karlín",CZ,50.0933242797571,14.4476682079786,point,36.0,16900.0,CZK,Pronájem bytu 1+kk 36 m²,apartment,rent,https://www.sreality.cz/detail/pronajem/byt/1+kk/praha-karlin-sokolovska/74067548
541,74693724,"Na Urbance, Roudnice nad Labem",CZ,50.42341880193499,14.2637722230428,point,52.0,12000.0,CZK,Pronájem bytu 2+1 52 m²,apartment,rent,https://www.sreality.cz/detail/pronajem/byt/2+1/roudnice-nad-labem-roudnice-nad-labem-na-urbance/74693724
542,74820700,"U zeměpisného ústavu, Praha 6 - Bubeneč",CZ,50.1033890339,14.4020715929,point,40.0,10000.0,CZK,Pronájem bytu 1+kk 40 m²,apartment,rent,https://www.sreality.cz/detail/pronajem/byt/1+kk/praha-bubenec-u-zemepisneho-ustavu/74820700
543,75251548,"Golfová, Praha 10 - Hostivař",CZ,50.048796753438,14.546371189103501,line,69.0,13900.0,CZK,Pronájem bytu 3+kk 69 m²,apartment,rent,https://www.sreality.cz/detail/pronajem/byt/3+kk/praha-hostivar-golfova/75251548
544,74948444,"Na Míčánce, Praha 6 - Dejvice",CZ,50.1125590051859,14.384625084726201,point,150.0,78000.0,CZK,Pronájem bytu 4+1 150 m²,apartment,rent,https://www.sreality.cz/detail/pronajem/byt/4+1/praha-dejvice-na-micance/74948444
549,75501404,"Palackého třída, Brno",CZ,49.220565,16.596743,line,48.0,9990.0,CZK,Pronájem bytu 1+1 48 m²,apartment,rent,https://www.sreality.cz/detail/pronajem/byt/1+1/brno--palackeho-trida/75501404
552,76160860,"Španělská, Praha 2 - Vinohrady",CZ,50.0794804555046,14.434255577518499,point,97.0,32000.0,CZK,Pronájem bytu 3+kk 97 m²,apartment,rent,https://www.sreality.cz/detail/pronajem/byt/3+kk/praha-vinohrady-spanelska/76160860
553,76201052,"Petržílova, Praha 4 - Modřany",CZ,49.999043705642,14.420670355974801,point,78.0,13000.0,CZK,Pronájem bytu 3+1 78 m²,apartment,rent,https://www.sreality.cz/detail/pronajem/byt/3+1/praha-modrany-petrzilova/76201052
554,76095324,"Benkova, Praha 4 - Chodov",CZ,50.0353861280805,14.501218377293501,line,58.0,14000.0,CZK,Pronájem bytu 2+kk 58 m²,apartment,rent,https://www.sreality.cz/detail/pronajem/byt/2+kk/praha-chodov-benkova/76095324
555,76295772,"Štěpánská, Praha 1 - Nové Město",CZ,50.0807152,14.426152199999999,point,72.0,21000.0,CZK,Pronájem bytu 3+1 72 m²,apartment,rent,https://www.sreality.cz/detail/pronajem/byt/3+1/praha-nove-mesto-stepanska/76295772
557,76255068,"Vršovců, Ostrava - Mariánské Hory",CZ,49.829661944444,18.245666111111,point,51.0,6950.0,CZK,Pronájem bytu 2+1 51 m²,apartment,rent,https://www.sreality.cz/detail/pronajem/byt/2+1/ostrava-marianske-hory-vrsovcu/76255068
558,76721244,"Josefy Faimonové, Brno - Líšeň",CZ,49.2046183333,16.6807319444,line,71.0,14500.0,CZK,Pronájem bytu 4+1 71 m²,apartment,rent,https://www.sreality.cz/detail/pronajem/byt/4+1/brno-lisen-josefy-faimonove/76721244
561,76754780,"Blatno, okres Louny",CZ,50.096918320548,13.3896975057645,polygon,51.0,5100.0,CZK,Pronájem bytu 2+1 51 m²,apartment,rent,https://www.sreality.cz/detail/pronajem/byt/2+1/blatno--/76754780
563,77160284,"Na Hvížďalce, Praha 5 - Stodůlky",CZ,50.041891869934304,14.3387956071737,line,60.0,15500.0,CZK,Pronájem bytu 3+kk 60 m²,apartment,rent,https://www.sreality.cz/detail/pronajem/byt/3+kk/praha-stodulky-na-hvizdalce/77160284
566,77799260,"Rokycanova, Praha 3 - Žižkov",CZ,50.085673423854296,14.4554014305841,point,41.0,13000.0,CZK,Pronájem bytu 1+1 41 m²,apartment,rent,https://www.sreality.cz/detail/pronajem/byt/1+1/praha-zizkov-rokycanova/77799260
567,77765724,"U jízdárny, Praha 8 - Dolní Chabry",CZ,50.1505547,14.445712099999998,point,70.0,17000.0,CZK,Pronájem bytu 3+kk 70 m²,apartment,rent,https://www.sreality.cz/detail/pronajem/byt/3+kk/praha-dolni-chabry-u-jizdarny/77765724
575,78069340,"Křížová, Praha 5 - Smíchov",CZ,50.0517666946,14.406627108599999,point,35.0,20000.0,CZK,Pronájem bytu 1+kk 35 m²,apartment,rent,https://www.sreality.cz/detail/pronajem/byt/1+kk/praha-smichov-krizova/78069340
577,78630748,"U Nikolajky, Praha 5 - Smíchov",CZ,50.06605427873139,14.393442852534301,point,115.0,30000.0,CZK,Pronájem bytu 4+kk 115 m²,apartment,rent,https://www.sreality.cz/detail/pronajem/byt/4+kk/praha-smichov-u-nikolajky/78630748
579,78756956,"Hodějovská, Praha 9 - Praha 14",CZ,50.09407,14.550410000000001,point,85.0,18000.0,CZK,Pronájem bytu 3+kk 85 m²,apartment,rent,https://www.sreality.cz/detail/pronajem/byt/3+kk/praha-praha-14-hodejovska/78756956
584,78790492,"Ve studeném, Praha 4 - Braník",CZ,50.030667,14.421422,point,25.0,10000.0,CZK,Pronájem bytu 1+kk 25 m²,apartment,rent,https://www.sreality.cz/detail/pronajem/byt/1+kk/praha-branik-ve-studenem/78790492
585,78999388,"Kollárova, Brno - Královo Pole",CZ,49.2258,16.5951,point,39.0,12000.0,CZK,Pronájem bytu 1+kk 39 m²,apartment,rent,https://www.sreality.cz/detail/pronajem/byt/1+kk/brno-kralovo-pole-kollarova/78999388
586,79314780,"Tibetská, Praha 6 - Vokovice",CZ,50.0986214,14.355401,point,62.0,18000.0,CZK,Pronájem bytu 2+kk 62 m²,apartment,rent,https://www.sreality.cz/detail/pronajem/byt/2+kk/praha-vokovice-tibetska/79314780
587,79105884,"Skořepka, Praha 1 - Staré Město",CZ,50.083718119184105,14.419883621536698,point,70.0,20000.0,CZK,Pronájem bytu 2+1 70 m²,apartment,rent,https://www.sreality.cz/detail/pronajem/byt/2+1/praha-stare-mesto-skorepka/79105884
589,79331164,"Španělská, Praha 2 - Vinohrady",CZ,50.07929229999999,14.434169800000001,point,27.0,11500.0,CZK,Pronájem bytu 1+kk 27 m²,apartment,rent,https://www.sreality.cz/detail/pronajem/byt/1+kk/praha-vinohrady-spanelska/79331164
591,79744860,"Čestmírova, Praha 4 - Nusle",CZ,50.0640879145,14.4444193692,point,29.0,13900.0,CZK,Pronájem bytu 1+kk 29 m²,apartment,rent,https://www.sreality.cz/detail/pronajem/byt/1+kk/praha-nusle-cestmirova/79744860
593,79801436,"Koněvova, Praha 3 - Žižkov",CZ,50.0883690884,14.4583192674,point,61.0,15000.0,CZK,Pronájem bytu 2+kk 61 m²,apartment,rent,https://www.sreality.cz/detail/pronajem/byt/2+kk/praha-zizkov-konevova/79801436
595,80043868,"Dvořákova, Frýdlant nad Ostravicí - Frýdlant",CZ,49.5883077687395,18.3621742853216,point,70.0,12000.0,CZK,Pronájem bytu 3+kk 70 m²,apartment,rent,https://www.sreality.cz/detail/pronajem/byt/3+kk/frydlant-nad-ostravici-frydlant-dvorakova/80043868
597,79843164,"Nad Primaskou, Praha 10 - Strašnice",CZ,50.0750471669483,14.4919029494401,point,85.0,18000.0,CZK,Pronájem bytu 3+kk 85 m²,apartment,rent,https://www.sreality.cz/detail/pronajem/byt/3+kk/praha-strasnice-nad-primaskou/79843164
598,80649308,"Vodárenská, Praha 4 - Podolí",CZ,50.05855,14.420366,point,25.0,10500.0,CZK,Pronájem bytu 1+1 25 m²,apartment,rent,https://www.sreality.cz/detail/pronajem/byt/1+1/praha-podoli-vodarenska/80649308
599,80760668,"I. J. Pešiny, Frýdek-Místek - Frýdek",CZ,49.693391802494105,18.357138530360398,line,73.0,11500.0,CZK,Pronájem bytu 3+1 73 m²,apartment,rent,https://www.sreality.cz/detail/pronajem/byt/3+1/frydek-mistek-frydek-i--j--pesiny/80760668
600,80805724,"Hodonínská, Praha 4 - Michle",CZ,50.0465078912786,14.459042541301699,line,100.0,16900.0,CZK,Pronájem bytu 3+kk 100 m²,apartment,rent,https://www.sreality.cz/detail/pronajem/byt/3+kk/praha-michle-hodoninska/80805724
601,81018460,"Klusáčkova, Týnec nad Sázavou",CZ,49.8300178598326,14.5919750328084,point,94.0,15100.0,CZK,Pronájem bytu 2+kk 94 m²,apartment,rent,https://www.sreality.cz/detail/pronajem/byt/2+kk/tynec-nad-sazavou-tynec-nad-sazavou-klusackova/81018460
605,80846684,"Na Tabulovém vrchu, Olomouc",CZ,49.582673111481284,17.2256813743819,line,89.0,16000.0,CZK,Pronájem bytu 3+kk 89 m²,apartment,rent,https://www.sreality.cz/detail/pronajem/byt/3+kk/olomouc--na-tabulovem-vrchu/80846684
609,81566812,"třída Generála Píky, Brno - Černá Pole",CZ,49.2183722018909,16.617215719202303,line,115.0,17000.0,CZK,Pronájem bytu 3+kk 115 m² (Mezonet),apartment,rent,https://www.sreality.cz/detail/pronajem/byt/3+kk/brno-cerna-pole-trida-generala-piky/81566812
611,81682268,"Ve Smečkách, Praha 1 - Nové Město",CZ,50.078777,14.427356,point,60.0,18500.0,CZK,Pronájem bytu 2+1 60 m²,apartment,rent,https://www.sreality.cz/detail/pronajem/byt/2+1/praha-nove-mesto-ve-smeckach/81682268
612,81694556,"Velenovského, Praha 10 - Záběhlice",CZ,50.053218187862605,14.5129182860199,line,28.0,10500.0,CZK,Pronájem bytu 1+kk 28 m²,apartment,rent,https://www.sreality.cz/detail/pronajem/byt/1+kk/praha-zabehlice-velenovskeho/81694556
614,81850204,"Donská, Praha 10 - Vršovice",CZ,50.07030868530271,14.447529792785597,point,139.0,50000.0,CZK,Pronájem bytu 3+1 139 m²,apartment,rent,https://www.sreality.cz/detail/pronajem/byt/3+1/praha-vrsovice-donska/81850204
616,81891164,"Staroměstské náměstí, Mladá Boleslav - Mladá Boleslav I",CZ,50.4134249,14.908437999999899,point,58.0,19000.0,CZK,Pronájem bytu 2+kk 58 m²,apartment,rent,https://www.sreality.cz/detail/pronajem/byt/2+kk/mlada-boleslav-mlada-boleslav-i-staromestske-namesti/81891164
617,81399644,"1. máje, Hlučín",CZ,49.903608333333,18.187928888889,point,27.0,3950.0,CZK,Pronájem bytu 1+1 27 m²,apartment,rent,https://www.sreality.cz/detail/pronajem/byt/1+1/hlucin-hlucin-1--maje/81399644
618,82067036,"K Přehradě, Karlovy Vary - Doubí",CZ,50.2042961885973,12.834881200795401,line,200.0,15000.0,CZK,Pronájem bytu 4+1 200 m²,apartment,rent,https://www.sreality.cz/detail/pronajem/byt/4+1/karlovy-vary-doubi-k-prehrade/82067036
622,82558044,"Vladycká, Praha 10 - Hostivař",CZ,50.0544256407845,14.526279428672,line,68.0,20000.0,CZK,Pronájem bytu 3+kk 68 m²,apartment,rent,https://www.sreality.cz/detail/pronajem/byt/3+kk/praha-hostivar-vladycka/82558044
625,82402908,"Dobrá, okres Frýdek-Místek",CZ,49.6738284450933,18.4139273242141,polygon,86.0,13500.0,CZK,Pronájem bytu 3+1 86 m²,apartment,rent,https://www.sreality.cz/detail/pronajem/byt/3+1/dobra-dobra-/82402908
626,82644828,"Okružní, Česká Lípa",CZ,50.6981201171875,14.538330078125,point,79.0,11000.0,CZK,Pronájem bytu 3+1 79 m²,apartment,rent,https://www.sreality.cz/detail/pronajem/byt/3+1/ceska-lipa-ceska-lipa-okruzni/82644828
630,82652764,"Horská, Tanvald",CZ,50.7376044966675,15.292150528812599,line,27.0,5900.0,CZK,Pronájem bytu 1+kk 27 m²,apartment,rent,https://www.sreality.cz/detail/pronajem/byt/1+kk/tanvald-tanvald-horska/82652764
631,82685020,"Solniční, Brno - Brno-město",CZ,49.196922757764995,16.6060300005406,line,180.0,16000.0,CZK,Pronájem  pokoje 180 m²,apartment,rent,https://www.sreality.cz/detail/pronajem/byt/pokoj/brno-brno-mesto-solnicni/82685020
633,83205212,"Hluboká, Děčín - Děčín II-Nové Město",CZ,50.7805857414501,14.2288250278459,line,60.0,6500.0,CZK,Pronájem bytu 2+1 60 m²,apartment,rent,https://www.sreality.cz/detail/pronajem/byt/2+1/decin-decin-ii-nove-mesto-hluboka/83205212
635,83934300,"Matoušova, Praha 5 - Smíchov",CZ,50.0743515478922,14.4054844259919,point,34.0,13500.0,CZK,Pronájem bytu 1+kk 34 m²,apartment,rent,https://www.sreality.cz/detail/pronajem/byt/1+kk/praha-smichov-matousova/83934300
637,83644252,"Boleslavská třída, Nymburk",CZ,50.202178464777,15.0375010925355,point,39.0,11300.0,CZK,Pronájem bytu 2+kk 39 m²,apartment,rent,https://www.sreality.cz/detail/pronajem/byt/2+kk/nymburk-nymburk-boleslavska-trida/83644252
639,84979548,"Rychtáře Petříka, Praha 10 - Hostivař",CZ,50.055609999999994,14.52605,point,45.0,14000.0,CZK,Pronájem bytu 2+kk 45 m²,apartment,rent,https://www.sreality.cz/detail/pronajem/byt/2+kk/praha-hostivar-rychtare-petrika/84979548
640,84782172,"Kocínova, Písek - Budějovické Předměstí",CZ,49.305636685662,14.146807246122801,line,51.0,10865.0,CZK,Pronájem bytu 1+1 51 m²,apartment,rent,https://www.sreality.cz/detail/pronajem/byt/1+1/pisek-budejovicke-predmesti-kocinova/84782172
641,83988316,"Pomezní, Praha 8 - Libeň",CZ,50.1186179051,14.457259871199998,point,90.0,21900.0,CZK,Pronájem bytu 4+kk 90 m²,apartment,rent,https://www.sreality.cz/detail/pronajem/byt/4+kk/praha-liben-pomezni/83988316
644,85335900,"Černochova, Praha 5 - Košíře",CZ,50.0626581907788,14.379883505450303,line,177.0,32000.0,CZK,Pronájem bytu 5+kk 177 m² (Mezonet),apartment,rent,https://www.sreality.cz/detail/pronajem/byt/5+kk/praha-kosire-cernochova/85335900
646,86560604,"Houdova, Praha 5 - Košíře",CZ,50.064800262451,14.386099815369,point,60.0,15000.0,CZK,Pronájem bytu 2+1 60 m²,apartment,rent,https://www.sreality.cz/detail/pronajem/byt/2+1/praha-kosire-houdova/86560604
648,86454108,"Vlhká, Brno - Brno-střed",CZ,49.19532780375939,16.617418883877303,line,39.0,10000.0,CZK,Pronájem bytu 1+kk 39 m²,apartment,rent,https://www.sreality.cz/detail/pronajem/byt/1+kk/brno-brno-stred-vlhka/86454108
650,86732636,"Sazovická, Praha 5 - Zličín",CZ,50.057255277770004,14.28434305555,point,51.0,13900.0,CZK,Pronájem bytu 2+kk 51 m²,apartment,rent,https://www.sreality.cz/detail/pronajem/byt/2+kk/praha-zlicin-sazovicka/86732636
651,86859612,"Ostrovní, Praha 1 - Nové Město",CZ,50.080627854518795,14.416751254599,line,72.0,19000.0,CZK,Pronájem bytu 2+1 72 m²,apartment,rent,https://www.sreality.cz/detail/pronajem/byt/2+1/praha-nove-mesto-ostrovni/86859612
653,87375452,Praha 1 - Nové Město,CZ,50.0762900657347,14.4167285062604,polygon,44.0,24000.0,CZK,Pronájem bytu 2+kk 44 m²,apartment,rent,https://www.sreality.cz/detail/pronajem/byt/2+kk/praha-nove-mesto-/87375452
655,87137372,"Zámecké schody, Praha 1 - Malá Strana",CZ,50.089337650270004,14.400040162901199,line,80.0,20000.0,CZK,Pronájem bytu 3+1 80 m²,apartment,rent,https://www.sreality.cz/detail/pronajem/byt/3+1/praha-mala-strana-zamecke-schody/87137372
660,88297308,"Vratislavova, Praha 2 - Vyšehrad",CZ,50.066512661000004,14.4181020884,point,83.0,24000.0,CZK,Pronájem bytu 3+kk 83 m²,apartment,rent,https://www.sreality.cz/detail/pronajem/byt/3+kk/praha-vysehrad-vratislavova/88297308
664,87830108,"Sokolská, Praha 2 - Nové Město",CZ,50.0714331866678,14.4295734115468,point,52.0,19900.0,CZK,Pronájem bytu 2+kk 52 m²,apartment,rent,https://www.sreality.cz/detail/pronajem/byt/2+kk/praha-nove-mesto-sokolska/87830108
667,88895324,"U Ryšánky, Praha 4 - Krč",CZ,50.0375813963564,14.426050142614601,line,83.0,18000.0,CZK,Pronájem bytu 3+1 83 m²,apartment,rent,https://www.sreality.cz/detail/pronajem/byt/3+1/praha-krc-u-rysanky/88895324
677,90217564,"Thunovská, Praha 1 - Malá Strana",CZ,50.08914481886421,14.4022386373255,point,52.0,14500.0,CZK,Pronájem bytu 1+kk 52 m² (Mezonet),apartment,rent,https://www.sreality.cz/detail/pronajem/byt/1+kk/praha-mala-strana-thunovska/90217564
678,90275676,"Holubinková, Praha 10 - Pitkovice",CZ,50.0159522216768,14.582689403835301,point,51.0,13500.0,CZK,Pronájem bytu 2+kk 51 m²,apartment,rent,https://www.sreality.cz/detail/pronajem/byt/2+kk/praha-pitkovice-holubinkova/90275676
679,89893980,"Korunní, Praha 2 - Vinohrady",CZ,50.0754639554778,14.4444565709519,point,159.0,36000.0,CZK,Pronájem bytu 3+kk 159 m²,apartment,rent,https://www.sreality.cz/detail/pronajem/byt/3+kk/praha-vinohrady-korunni/89893980
681,90848860,"Holečkova, Praha 5 - Košíře",CZ,50.0737994196445,14.3941386045369,line,50.0,35000.0,CZK,Pronájem bytu 2+kk 50 m²,apartment,rent,https://www.sreality.cz/detail/pronajem/byt/2+kk/praha-kosire-holeckova/90848860
684,90938460,"Rybalkova, Praha 2 - Vinohrady",CZ,50.072019820795404,14.442759265318598,point,40.0,20000.0,CZK,Pronájem bytu 2+kk 40 m²,apartment,rent,https://www.sreality.cz/detail/pronajem/byt/2+kk/praha-vinohrady-rybalkova/90938460
687,91250524,"Edvarda Beneše, Plzeň - Plzeň 3",CZ,49.724024452739286,13.3778914371089,line,26.0,6000.0,CZK,Pronájem bytu 1+kk 26 m²,apartment,rent,https://www.sreality.cz/detail/pronajem/byt/1+kk/plzen-plzen-3-edvarda-benese/91250524
688,91692892,"Mánesova, Praha 2 - Vinohrady",CZ,50.077612336139204,14.443256137940304,point,55.0,13500.0,CZK,Pronájem bytu 2+1 55 m²,apartment,rent,https://www.sreality.cz/detail/pronajem/byt/2+1/praha-vinohrady-manesova/91692892
691,92487260,"Dobrovského, Praha 7 - Holešovice",CZ,50.0989037,14.423184400000002,point,200.0,50000.0,CZK,Pronájem bytu 5+1 200 m²,apartment,rent,https://www.sreality.cz/detail/pronajem/byt/5+1/praha-holesovice-dobrovskeho/92487260
692,91733084,"Lindleyova, Praha 6 - Dejvice",CZ,50.112428725774095,14.3908508743331,line,64.0,20000.0,CZK,Pronájem bytu 2+kk 64 m²,apartment,rent,https://www.sreality.cz/detail/pronajem/byt/2+kk/praha-dejvice-lindleyova/91733084
693,92352348,"Moskevská, Karlovy Vary",CZ,50.228644913450786,12.868491494187,point,96.0,19500.0,CZK,Pronájem bytu 3+1 96 m²,apartment,rent,https://www.sreality.cz/detail/pronajem/byt/3+1/karlovy-vary-karlovy-vary-moskevska/92352348
694,92360540,"Slávy Horníka, Praha 5 - Košíře",CZ,50.06811904907229,14.369039535522498,point,135.0,30000.0,CZK,Pronájem bytu 4+kk 135 m²,apartment,rent,https://www.sreality.cz/detail/pronajem/byt/4+kk/praha-kosire-slavy-hornika/92360540
695,92056668,"Pod vysokou mezí, Praha 5 - Holyně",CZ,50.026563,14.353617999999999,line,42.0,10000.0,CZK,Pronájem bytu 2+kk 42 m²,apartment,rent,https://www.sreality.cz/detail/pronajem/byt/2+kk/praha-holyne-pod-vysokou-mezi/92056668
696,91774556,"Klikatá, Praha 5 - Jinonice",CZ,50.057272201675204,14.369162626900305,line,144.0,36000.0,CZK,Pronájem bytu 4+1 144 m²,apartment,rent,https://www.sreality.cz/detail/pronajem/byt/4+1/praha-jinonice-klikata/91774556
699,93072988,"Koněvova, Praha 3 - Žižkov",CZ,50.06823350000001,14.457823300000001,point,17.0,6000.0,CZK,Pronájem  pokoje 17 m²,apartment,rent,https://www.sreality.cz/detail/pronajem/byt/pokoj/praha-zizkov-konevova/93072988
701,93559900,"Mrkvičkova, Praha 6 - Řepy",CZ,50.0669977,14.317315300000002,point,82.0,16000.0,CZK,Pronájem bytu 3+kk 82 m²,apartment,rent,https://www.sreality.cz/detail/pronajem/byt/3+kk/praha-repy-mrkvickova/93559900
705,93166684,"Sjednocení, Studénka - Butovice",CZ,49.7150964566586,18.058960249681803,line,54.0,11000.0,CZK,Pronájem bytu 2+1 54 m²,apartment,rent,https://www.sreality.cz/detail/pronajem/byt/2+1/studenka-butovice-sjednoceni/93166684
706,93760604,"Dr. Glazera, Horní Suchá",CZ,49.79568,18.484878333333,point,88.0,7250.0,CZK,Pronájem bytu 4+1 88 m²,apartment,rent,https://www.sreality.cz/detail/pronajem/byt/4+1/horni-sucha-horni-sucha-dr--glazera/93760604
709,93974108,"Na struze, Praha 1 - Nové Město",CZ,50.07975,14.414385999999999,point,47.0,20000.0,CZK,Pronájem bytu 1+kk 47 m²,apartment,rent,https://www.sreality.cz/detail/pronajem/byt/1+kk/praha-nove-mesto-na-struze/93974108
716,95108700,"Truhlářská, Praha 1 - Nové Město",CZ,50.0898400967,14.4287078424,point,69.0,32000.0,CZK,Pronájem bytu 3+kk 69 m²,apartment,rent,https://www.sreality.cz/detail/pronajem/byt/3+kk/praha-nove-mesto-truhlarska/95108700
717,95001692,"Chelčického, Jablonec nad Nisou - Jablonecké Paseky",CZ,50.73420720000001,15.185792900000001,point,77.0,15000.0,CZK,Pronájem bytu 3+kk 77 m²,apartment,rent,https://www.sreality.cz/detail/pronajem/byt/3+kk/jablonec-nad-nisou-jablonecke-paseky-chelcickeho/95001692
718,95202396,"Moravcových, Praha 9 - Vysočany",CZ,50.112003717649,14.5150394481361,point,40.0,12000.0,CZK,Pronájem bytu 1+kk 40 m²,apartment,rent,https://www.sreality.cz/detail/pronajem/byt/1+kk/praha-vysocany-moravcovych/95202396
719,94928732,"Křesomyslova, Praha 4 - Nusle",CZ,50.0646667564917,14.437223321684199,line,38.0,12000.0,CZK,Pronájem bytu 1+1 38 m²,apartment,rent,https://www.sreality.cz/detail/pronajem/byt/1+1/praha-nusle-kresomyslova/94928732
720,95075420,"Ve slatinách, Praha 10 - Záběhlice",CZ,50.056778888900006,14.4901952778,line,45.0,13500.0,CZK,Pronájem bytu 2+kk 45 m²,apartment,rent,https://www.sreality.cz/detail/pronajem/byt/2+kk/praha-zabehlice-ve-slatinach/95075420
722,95235932,"Na Poříčí, Praha 1 - Nové Město",CZ,50.0897033203348,14.4332336281191,point,104.0,22500.0,CZK,Pronájem bytu 4+1 104 m²,apartment,rent,https://www.sreality.cz/detail/pronajem/byt/4+1/praha-nove-mesto-na-porici/95235932
729,95756124,"Vinohradská, Praha 2 - Vinohrady",CZ,50.07774981101271,14.459920842569401,line,52.0,17000.0,CZK,Pronájem bytu 2+kk 52 m²,apartment,rent,https://www.sreality.cz/detail/pronajem/byt/2+kk/praha-vinohrady-vinohradska/95756124
730,95817564,"Budovatelů, Nový Jičín",CZ,49.594636,17.997765,point,50.0,12000.0,CZK,Pronájem bytu 2+1 50 m²,apartment,rent,https://www.sreality.cz/detail/pronajem/byt/2+1/novy-jicin-novy-jicin-budovatelu/95817564
731,96640092,"Brožíkova, Hradec Králové - Nový Hradec Králové",CZ,50.192103,15.8458995,point,35.0,7300.0,CZK,Pronájem bytu 1+kk 35 m²,apartment,rent,https://www.sreality.cz/detail/pronajem/byt/1+kk/hradec-kralove-novy-hradec-kralove-brozikova/96640092
732,96775772,"Cedrová, Jesenice",CZ,49.9698345977892,14.5315626582705,point,65.0,12990.0,CZK,Pronájem bytu 2+1 65 m²,apartment,rent,https://www.sreality.cz/detail/pronajem/byt/2+1/jesenice-jesenice-cedrova/96775772
735,97066844,"Svornosti, Praha 5 - Smíchov",CZ,50.0714529067072,14.408456351693196,point,75.0,24000.0,CZK,Pronájem bytu 2+kk 75 m²,apartment,rent,https://www.sreality.cz/detail/pronajem/byt/2+kk/praha-smichov-svornosti/97066844
737,97505116,"Františka Jansy, Praha 10 - Dolní Měcholupy",CZ,50.0650052421925,14.5526913068843,point,93.0,19000.0,CZK,Pronájem bytu 3+kk 93 m²,apartment,rent,https://www.sreality.cz/detail/pronajem/byt/3+kk/praha-dolni-mecholupy-frantiska-jansy/97505116
738,97152860,"Písečná, Praha 8 - Troja",CZ,50.1241153430396,14.440515988901,point,39.0,13000.0,CZK,Pronájem bytu 2+1 39 m²,apartment,rent,https://www.sreality.cz/detail/pronajem/byt/2+1/praha-troja-pisecna/97152860
739,97124188,"Nádražní, Ostrava - Moravská Ostrava",CZ,49.844210798361594,18.281094181268802,line,25.0,4300.0,CZK,Pronájem  pokoje 25 m²,apartment,rent,https://www.sreality.cz/detail/pronajem/byt/pokoj/ostrava-moravska-ostrava-nadrazni/97124188
741,98836316,"Armádní, Milovice - Mladá",CZ,50.229292597804395,14.871384398081998,point,35.0,8000.0,CZK,Pronájem bytu 1+1 35 m²,apartment,rent,https://www.sreality.cz/detail/pronajem/byt/1+1/milovice-mlada-armadni/98836316
743,97644380,"Balbínova, Praha 2 - Vinohrady",CZ,50.07819724294001,14.4347761526068,line,94.0,32000.0,CZK,Pronájem bytu 3+kk 94 m² (Mezonet),apartment,rent,https://www.sreality.cz/detail/pronajem/byt/3+kk/praha-vinohrady-balbinova/97644380
745,99322972,"Bělehradská, Most",CZ,50.507619,13.645836,point,40.0,8500.0,CZK,Pronájem bytu 2+kk 40 m²,apartment,rent,https://www.sreality.cz/detail/pronajem/byt/2+kk/most-most-belehradska/99322972
749,100126300,"Šaldova, Praha 8 - Karlín",CZ,50.093631744384794,14.455340385437,point,84.0,24500.0,CZK,Pronájem bytu 2+kk 84 m²,apartment,rent,https://www.sreality.cz/detail/pronajem/byt/2+kk/praha-karlin-saldova/100126300
751,100331356,"Příbramská, Verneřice",CZ,50.662355375842715,14.295315726712198,line,35.0,7000.0,CZK,Pronájem bytu 2+kk 35 m²,apartment,rent,https://www.sreality.cz/detail/pronajem/byt/2+kk/vernerice-vernerice-pribramska/100331356
754,100514908,"Vratislavova, Praha 2 - Vyšehrad",CZ,50.0664082266578,14.418720469163,line,50.0,21000.0,CZK,Pronájem bytu 2+kk 50 m²,apartment,rent,https://www.sreality.cz/detail/pronajem/byt/2+kk/praha-vysehrad-vratislavova/100514908
756,100703324,"U Průhonu, Praha 7 - Holešovice",CZ,50.10491754379029,14.4471465598561,point,76.0,18000.0,CZK,Pronájem bytu 3+1 76 m²,apartment,rent,https://www.sreality.cz/detail/pronajem/byt/3+1/praha-holesovice-u-pruhonu/100703324
758,100556636,"Tryskovická, Praha 9 - Čakovice",CZ,50.1608095180237,14.517816429186,line,102.0,26000.0,CZK,Pronájem bytu 4+kk 102 m²,apartment,rent,https://www.sreality.cz/detail/pronajem/byt/4+kk/praha-cakovice-tryskovicka/100556636
761,101019484,"Vojtěšská, Praha 1 - Nové Město",CZ,50.0785372430739,14.414912393447098,line,185.0,50000.0,CZK,Pronájem bytu 5+kk 185 m²,apartment,rent,https://www.sreality.cz/detail/pronajem/byt/5+kk/praha-nove-mesto-vojtesska/101019484
762,101469788,"Janáčkovo nábřeží, Praha 5",CZ,50.0768,14.408375,point,85.0,35000.0,CZK,Pronájem bytu 3+1 85 m²,apartment,rent,https://www.sreality.cz/detail/pronajem/byt/3+1/praha-praha-5-janackovo-nabrezi/101469788
764,101624924,"Mělnická, Praha - Malá Strana",CZ,50.08002629218289,14.4058505049634,line,100.0,25000.0,CZK,Pronájem bytu 4+kk 100 m²,apartment,rent,https://www.sreality.cz/detail/pronajem/byt/4+kk/praha-mala-strana-melnicka/101624924
767,102218844,"Českomoravská, Praha 9 - Libeň",CZ,50.10295104980471,14.4973602294922,point,57.0,15500.0,CZK,Pronájem bytu 2+kk 57 m²,apartment,rent,https://www.sreality.cz/detail/pronajem/byt/2+kk/praha-liben-ceskomoravska/102218844
768,102415452,"Zelená, Ostrava - Mariánské Hory",CZ,49.825177777777995,18.261678888889,point,56.0,6900.0,CZK,Pronájem bytu 2+1 56 m²,apartment,rent,https://www.sreality.cz/detail/pronajem/byt/2+1/ostrava-marianske-hory-zelena/102415452
769,102629212,"Novákových, Praha 8 - Libeň",CZ,50.1038990257267,14.476927476741901,line,47.0,15000.0,CZK,Pronájem bytu 2+kk 47 m²,apartment,rent,https://www.sreality.cz/detail/pronajem/byt/2+kk/praha-liben-novakovych/102629212
770,102465372,"Vinohradská, Praha 3 - Vinohrady",CZ,50.07774981101271,14.459920842569401,line,75.0,20000.0,CZK,Pronájem bytu 4+kk 75 m²,apartment,rent,https://www.sreality.cz/detail/pronajem/byt/4+kk/praha-vinohrady-vinohradska/102465372
774,100240476,"Krakovská, Praha 1 - Nové Město",CZ,50.0787094878229,14.4282395603196,line,120.0,27000.0,CZK,Pronájem bytu 4+kk 120 m²,apartment,rent,https://www.sreality.cz/detail/pronajem/byt/4+kk/praha-nove-mesto-krakovska/100240476
775,103660636,"Duškova, Praha 5 - Smíchov",CZ,50.071622390771296,14.393542348754,line,27.0,7500.0,CZK,Pronájem bytu 1+kk 27 m²,apartment,rent,https://www.sreality.cz/detail/pronajem/byt/1+kk/praha-smichov-duskova/103660636
778,103980124,"Nerudova, Praha 1 - Malá Strana",CZ,50.08855313064471,14.398749934595001,point,75.0,22000.0,CZK,Pronájem bytu 2+kk 75 m²,apartment,rent,https://www.sreality.cz/detail/pronajem/byt/2+kk/praha-mala-strana-nerudova/103980124
780,104180828,"Čechova, Plzeň - Jižní Předměstí",CZ,49.7324543383266,13.3736073015222,line,44.0,8600.0,CZK,Pronájem bytu 2+kk 44 m²,apartment,rent,https://www.sreality.cz/detail/pronajem/byt/2+kk/plzen-jizni-predmesti-cechova/104180828
783,104431452,"Provazníkova, Brno - Černá Pole",CZ,49.2141917165225,16.6232142602914,point,35.0,14000.0,CZK,Pronájem bytu 2+kk 35 m²,apartment,rent,https://www.sreality.cz/detail/pronajem/byt/2+kk/brno-cerna-pole-provaznikova/104431452
784,104267612,"Křivoklátská, Nové Strašecí",CZ,50.146561217605296,13.904874688552999,line,67.0,12000.0,CZK,Pronájem bytu 3+1 67 m²,apartment,rent,https://www.sreality.cz/detail/pronajem/byt/3+1/nove-straseci-nove-straseci-krivoklatska/104267612
785,104545884,"Pod Karlovem, Praha 2 - Vinohrady",CZ,50.0676282761304,14.432493604042197,point,112.0,24900.0,CZK,Pronájem bytu 3+1 112 m²,apartment,rent,https://www.sreality.cz/detail/pronajem/byt/3+1/praha-vinohrady-pod-karlovem/104545884
786,104607324,"U Sluncové, Praha 8 - Karlín",CZ,50.0955690938,14.4692115423,line,30.0,17700.0,CZK,Pronájem bytu 1+kk 30 m²,apartment,rent,https://www.sreality.cz/detail/pronajem/byt/1+kk/praha-karlin-u-sluncove/104607324
788,104611676,"Slovinská, Brno - Královo Pole",CZ,49.2202864698705,16.5939806328621,point,20.0,10000.0,CZK,Pronájem  pokoje 20 m²,apartment,rent,https://www.sreality.cz/detail/pronajem/byt/pokoj/brno-kralovo-pole-slovinska/104611676
789,104808028,"Vinohradská, Praha 10 - Strašnice",CZ,50.0776726417601,14.4870072483681,point,55.0,14000.0,CZK,Pronájem bytu 2+kk 55 m²,apartment,rent,https://www.sreality.cz/detail/pronajem/byt/2+kk/praha-strasnice-vinohradska/104808028
790,104762972,"Na Kozačce, Praha 2 - Vinohrady",CZ,50.07134689300001,14.442572938800001,point,42.0,32000.0,CZK,Pronájem bytu 2+kk 42 m²,apartment,rent,https://www.sreality.cz/detail/pronajem/byt/2+kk/praha-vinohrady-na-kozacce/104762972
793,105311836,"Na struze, Praha 1 - Nové Město",CZ,50.07966980585049,14.4148050433702,point,125.0,40000.0,CZK,Pronájem bytu 4+kk 125 m²,apartment,rent,https://www.sreality.cz/detail/pronajem/byt/4+kk/praha-nove-mesto-na-struze/105311836
794,105098332,"Sochařská, Praha 7 - Bubeneč",CZ,50.101606773476,14.4244760818364,line,56.0,15500.0,CZK,Pronájem bytu 2+kk 56 m²,apartment,rent,https://www.sreality.cz/detail/pronajem/byt/2+kk/praha-bubenec-socharska/105098332
796,105143900,"Bohuslava Vrbenského, Most",CZ,50.493128377661705,13.6569089144768,line,40.0,8000.0,CZK,Pronájem bytu 2+kk 40 m²,apartment,rent,https://www.sreality.cz/detail/pronajem/byt/2+kk/most-most-bohuslava-vrbenskeho/105143900
797,106131292,"Nádražní, Chropyně",CZ,49.3633,17.3627733386,point,48.0,10000.0,CZK,Pronájem bytu 2+1 48 m²,apartment,rent,https://www.sreality.cz/detail/pronajem/byt/2+1/chropyne-chropyne-nadrazni/106131292
798,106102620,"U Sídliště, Zlín - Malenovice",CZ,49.203185740856284,17.5853752109856,line,90.0,13400.0,CZK,Pronájem bytu 3+1 90 m²,apartment,rent,https://www.sreality.cz/detail/pronajem/byt/3+1/zlin-malenovice-u-sidliste/106102620
800,106172252,"náměstí Jiřího z Poděbrad, Praha 3 - Vinohrady",CZ,50.078489199865295,14.4501592814785,line,121.0,94800.0,CZK,Pronájem bytu 4+kk 121 m²,apartment,rent,https://www.sreality.cz/detail/pronajem/byt/4+kk/praha-vinohrady-namesti-jiriho-z-podebrad/106172252
803,107060316,"Gagarinova, Habartov",CZ,50.1825961998746,12.5534962728734,line,57.0,8200.0,CZK,Pronájem bytu 2+1 57 m²,apartment,rent,https://www.sreality.cz/detail/pronajem/byt/2+1/habartov-habartov-gagarinova/107060316
804,107175772,"Šimáčkova, Praha 7 - Holešovice",CZ,50.103141784668,14.434539794921902,point,90.0,21900.0,CZK,Pronájem bytu 3+kk 90 m²,apartment,rent,https://www.sreality.cz/detail/pronajem/byt/3+kk/praha-holesovice-simackova/107175772
807,108502108,"Bechlínská, Praha 9 - Letňany",CZ,50.1272963271981,14.503200360595901,line,59.0,15000.0,CZK,Pronájem bytu 2+kk 59 m²,apartment,rent,https://www.sreality.cz/detail/pronajem/byt/2+kk/praha-letnany-bechlinska/108502108
808,108740188,"Kotevní, Praha 5 - Smíchov",CZ,50.06383608671571,14.410012534749901,point,76.0,24000.0,CZK,Pronájem bytu 3+kk 76 m²,apartment,rent,https://www.sreality.cz/detail/pronajem/byt/3+kk/praha-smichov-kotevni/108740188
812,108986204,"Starochodovská, Praha 4 - Chodov",CZ,50.0301275,14.5032975,point,48.0,12000.0,CZK,Pronájem bytu 2+kk 48 m²,apartment,rent,https://www.sreality.cz/detail/pronajem/byt/2+kk/praha-chodov-starochodovska/108986204
817,109608796,"Mládeže, Praha 6 - Břevnov",CZ,50.08520259962621,14.373563201658401,point,60.0,13300.0,CZK,Pronájem bytu 2+kk 60 m²,apartment,rent,https://www.sreality.cz/detail/pronajem/byt/2+kk/praha-brevnov-mladeze/109608796
819,109985372,"Mlynářská, Praha 1 - Nové Město",CZ,50.0919852896729,14.4342660002282,point,47.0,21000.0,CZK,Pronájem bytu 2+kk 47 m²,apartment,rent,https://www.sreality.cz/detail/pronajem/byt/2+kk/praha-nove-mesto-mlynarska/109985372
820,110374492,"Klikatá, Praha 5 - Jinonice",CZ,50.057272201675204,14.369162626900305,line,72.0,20000.0,CZK,Pronájem bytu 2+1 72 m²,apartment,rent,https://www.sreality.cz/detail/pronajem/byt/2+1/praha-jinonice-klikata/110374492
821,110112604,"Baarova, Liberec - Liberec I-Staré Město",CZ,50.771836811405,15.0668030645661,line,70.0,12000.0,CZK,Pronájem bytu 2+1 70 m²,apartment,rent,https://www.sreality.cz/detail/pronajem/byt/2+1/liberec-liberec-i-stare-mesto-baarova/110112604
823,110926940,"Masarykova, Hluboká nad Vltavou",CZ,49.0514793395996,14.435070037841802,point,32.0,12000.0,CZK,Pronájem bytu 1+kk 32 m²,apartment,rent,https://www.sreality.cz/detail/pronajem/byt/1+kk/hluboka-nad-vltavou-hluboka-nad-vltavou-masarykova/110926940
824,110603356,"Trmice, okres Ústí nad Labem",CZ,50.6428622398196,13.9944919222375,polygon,65.0,8000.0,CZK,Pronájem bytu 2+1 65 m²,apartment,rent,https://www.sreality.cz/detail/pronajem/byt/2+1/trmice-trmice-/110603356
830,111877980,"Mečislavova, Praha 4 - Nusle",CZ,50.0637,14.4442,line,44.0,16000.0,CZK,Pronájem bytu 2+kk 44 m²,apartment,rent,https://www.sreality.cz/detail/pronajem/byt/2+kk/praha-nusle-mecislavova/111877980
831,111918172,"Vrchovinská, Nové Město nad Metují",CZ,50.36001891316671,16.1517959824717,point,75.0,10000.0,CZK,Pronájem bytu 2+kk 75 m²,apartment,rent,https://www.sreality.cz/detail/pronajem/byt/2+kk/nove-mesto-nad-metuji-nove-mesto-nad-metuji-vrchovinska/111918172
833,112143964,"Londýnská, Praha 2 - Vinohrady",CZ,50.0761184692383,14.432720184326199,point,170.0,26000.0,CZK,Pronájem bytu 3+1 170 m² (Mezonet),apartment,rent,https://www.sreality.cz/detail/pronajem/byt/3+1/praha-vinohrady-londynska/112143964
834,112242524,"Krakovská, Praha 1 - Nové Město",CZ,50.0787094878229,14.4282395603196,line,134.0,24900.0,CZK,Pronájem bytu 3+1 134 m² (Podkrovní),apartment,rent,https://www.sreality.cz/detail/pronajem/byt/3+1/praha-nove-mesto-krakovska/112242524
835,111988572,"Karmelitská, Praha 1 - Malá Strana",CZ,50.0863445729014,14.4040658856271,line,55.0,18000.0,CZK,Pronájem bytu 2+1 55 m²,apartment,rent,https://www.sreality.cz/detail/pronajem/byt/2+1/praha-mala-strana-karmelitska/111988572
837,112761948,"Lázeňská, Praha 1 - Malá Strana",CZ,50.0867424,14.4060345,point,29.0,14000.0,CZK,Pronájem bytu 1+kk 29 m²,apartment,rent,https://www.sreality.cz/detail/pronajem/byt/1+kk/praha-mala-strana-lazenska/112761948
840,112639068,"Křižíkova, Ostrava - Moravská Ostrava",CZ,49.8466839742482,18.2824146408134,line,38.0,7000.0,CZK,Pronájem bytu 1+1 38 m²,apartment,rent,https://www.sreality.cz/detail/pronajem/byt/1+1/ostrava-moravska-ostrava-krizikova/112639068
841,113868636,"Cholevova, Ostrava - Hrabůvka",CZ,49.784483055556,18.250726111111,point,75.0,11700.0,CZK,Pronájem bytu 3+1 75 m²,apartment,rent,https://www.sreality.cz/detail/pronajem/byt/3+1/ostrava-hrabuvka-cholevova/113868636
842,113643356,"Jarošova, Havířov - Šumbark",CZ,49.794393055556,18.403254166666997,point,48.0,4300.0,CZK,Pronájem bytu 2+1 48 m²,apartment,rent,https://www.sreality.cz/detail/pronajem/byt/2+1/havirov-sumbark-jarosova/113643356
843,113966940,"Strnadových, Praha 9 - Vysočany",CZ,50.112167823466905,14.513854893081698,point,47.0,12500.0,CZK,Pronájem bytu 1+kk 47 m²,apartment,rent,https://www.sreality.cz/detail/pronajem/byt/1+kk/praha-vysocany-strnadovych/113966940
844,113921884,"Václavkova, Jihlava",CZ,49.4082620911125,15.584183110515498,point,41.0,7500.0,CZK,Pronájem bytu 1+kk 41 m²,apartment,rent,https://www.sreality.cz/detail/pronajem/byt/1+kk/jihlava-jihlava-vaclavkova/113921884
845,114237276,"Patočkova, Praha 6 - Břevnov",CZ,50.0862007141113,14.370750427246099,point,40.0,12000.0,CZK,Pronájem bytu 2+1 40 m²,apartment,rent,https://www.sreality.cz/detail/pronajem/byt/2+1/praha-brevnov-patockova/114237276
848,114134876,"Dvořákova, Ostrava - Moravská Ostrava",CZ,49.8381500564988,18.292024716296197,point,32.0,9500.0,CZK,Pronájem bytu 2+kk 32 m²,apartment,rent,https://www.sreality.cz/detail/pronajem/byt/2+kk/ostrava-moravska-ostrava-dvorakova/114134876
849,114601052,"Čermákova, Praha 2 - Vinohrady",CZ,50.071075391856496,14.441342249345901,line,55.0,21000.0,CZK,Pronájem bytu 2+kk 55 m²,apartment,rent,https://www.sreality.cz/detail/pronajem/byt/2+kk/praha-vinohrady-cermakova/114601052
852,115031900,"Maltézské náměstí, Praha - Malá Strana",CZ,50.086404450750294,14.4052355037374,line,60.0,18000.0,CZK,Pronájem bytu 2+1 60 m²,apartment,rent,https://www.sreality.cz/detail/pronajem/byt/2+1/praha-mala-strana-maltezske-namesti/115031900
853,115093084,"Výletní, Praha 4 - Písnice",CZ,50.003559520317104,14.4629184701421,point,80.0,16500.0,CZK,Pronájem bytu 3+1 80 m²,apartment,rent,https://www.sreality.cz/detail/pronajem/byt/3+1/praha-pisnice-vyletni/115093084
856,115281756,"Zemědělská, Praha 6 - Dejvice",CZ,50.107526422346496,14.3913762363166,point,38.0,11900.0,CZK,Pronájem bytu 1+1 38 m²,apartment,rent,https://www.sreality.cz/detail/pronajem/byt/1+1/praha-dejvice-zemedelska/115281756
858,116366428,"Tusarova, Praha 7 - Holešovice",CZ,50.1018474662806,14.450036439005695,line,32.0,11000.0,CZK,Pronájem bytu 1+kk 32 m²,apartment,rent,https://www.sreality.cz/detail/pronajem/byt/1+kk/praha-holesovice-tusarova/116366428
859,115834716,"Na Záhonech, Praha 4 - Michle",CZ,50.047140999999996,14.466206,line,32.0,12200.0,CZK,Pronájem bytu 1+kk 32 m²,apartment,rent,https://www.sreality.cz/detail/pronajem/byt/1+kk/praha-michle-na-zahonech/115834716
860,116436060,"Janského, Praha - Stodůlky",CZ,50.0378326950733,14.3428188443045,line,18.0,9000.0,CZK,Pronájem  pokoje 18 m²,apartment,rent,https://www.sreality.cz/detail/pronajem/byt/pokoj/praha-stodulky-janskeho/116436060
861,116477788,"Místní, Havířov - Město",CZ,49.783841111111,18.428725555556,point,69.0,7000.0,CZK,Pronájem bytu 3+1 69 m²,apartment,rent,https://www.sreality.cz/detail/pronajem/byt/3+1/havirov-mesto-mistni/116477788
866,117156956,"28. října, Hranice - Hranice I-Město",CZ,49.5465813,17.733230600000006,point,97.0,10500.0,CZK,Pronájem bytu 3+1 97 m²,apartment,rent,https://www.sreality.cz/detail/pronajem/byt/3+1/hranice-hranice-i-mesto-28--rijna/117156956
868,117559132,"Vinohradská, Praha 2 - Vinohrady",CZ,50.077546923558295,14.438021747981805,point,150.0,35000.0,CZK,Pronájem bytu 4+1 150 m²,apartment,rent,https://www.sreality.cz/detail/pronajem/byt/4+1/praha-vinohrady-vinohradska/117559132
870,117235292,"Vinohradská, Praha 2 - Vinohrady",CZ,50.07774981101271,14.459920842569401,line,105.0,25000.0,CZK,Pronájem bytu 3+1 105 m² (Podkrovní),apartment,rent,https://www.sreality.cz/detail/pronajem/byt/3+1/praha-vinohrady-vinohradska/117235292
871,117837660,"Jana Kubelíka, Most",CZ,50.50385,13.655,point,35.0,7400.0,CZK,Pronájem bytu 1+1 35 m²,apartment,rent,https://www.sreality.cz/detail/pronajem/byt/1+1/most-most-jana-kubelika/117837660
872,117931868,"Vocelova, Hradec Králové - Pražské Předměstí",CZ,50.2195400550873,15.8161711491193,point,45.0,9000.0,CZK,Pronájem bytu 1+1 45 m²,apartment,rent,https://www.sreality.cz/detail/pronajem/byt/1+1/hradec-kralove-prazske-predmesti-vocelova/117931868
874,118775644,"Slunečná, Černošice",CZ,49.943031299999994,14.316846799999999,point,56.0,14500.0,CZK,Pronájem bytu 2+kk 56 m²,apartment,rent,https://www.sreality.cz/detail/pronajem/byt/2+kk/cernosice-cernosice-slunecna/118775644
875,118566748,"Dlouhá, Praha - Staré Město",CZ,50.0901001272248,14.4243459151219,line,55.0,20000.0,CZK,Pronájem bytu 2+kk 55 m²,apartment,rent,https://www.sreality.cz/detail/pronajem/byt/2+kk/praha-stare-mesto-dlouha/118566748
876,118435420,"Pařížská, Praha 1 - Staré Město",CZ,50.0889282226563,14.4197034835815,point,297.0,100000.0,CZK,Pronájem bytu 5+kk 297 m² (Mezonet),apartment,rent,https://www.sreality.cz/detail/pronajem/byt/5+kk/praha-stare-mesto-parizska/118435420
878,119488092,"Máchova, Praha 2 - Vinohrady",CZ,50.0719621121,14.4414658789,point,93.0,40000.0,CZK,Pronájem bytu 3+kk 93 m²,apartment,rent,https://www.sreality.cz/detail/pronajem/byt/3+kk/praha-vinohrady-machova/119488092
879,119553628,"Slavíkova, Praha 3 - Žižkov",CZ,50.0799106283724,14.447629546078,point,36.0,13000.0,CZK,Pronájem bytu 1+kk 36 m²,apartment,rent,https://www.sreality.cz/detail/pronajem/byt/1+kk/praha-zizkov-slavikova/119553628
880,119577692,"Loucká, Znojmo",CZ,48.8439515441346,16.0571115174466,line,43.0,7500.0,CZK,Pronájem bytu 1+1 43 m²,apartment,rent,https://www.sreality.cz/detail/pronajem/byt/1+1/znojmo-znojmo-loucka/119577692
882,119177052,"Na břevnovské pláni, Praha 6 - Břevnov",CZ,50.075286,14.329879,line,55.0,15000.0,CZK,Pronájem bytu 2+kk 55 m²,apartment,rent,https://www.sreality.cz/detail/pronajem/byt/2+kk/praha-brevnov-na-brevnovske-plani/119177052
883,119607132,"Janáčkovo nábřeží, Praha 5 - Smíchov",CZ,50.0730020772356,14.4097917241493,point,82.0,25000.0,CZK,Pronájem bytu 2+1 82 m²,apartment,rent,https://www.sreality.cz/detail/pronajem/byt/2+1/praha-smichov-janackovo-nabrezi/119607132
885,119803740,"Naskové, Praha 5 - Košíře",CZ,50.0630362041138,14.3619645514186,line,53.0,18000.0,CZK,Pronájem bytu 2+kk 53 m²,apartment,rent,https://www.sreality.cz/detail/pronajem/byt/2+kk/praha-kosire-naskove/119803740
886,119820124,"Mezi Vodami, Praha 4 - Modřany",CZ,50.01322937011721,14.401599884033198,point,37.0,11500.0,CZK,Pronájem bytu 1+kk 37 m²,apartment,rent,https://www.sreality.cz/detail/pronajem/byt/1+kk/praha-modrany-mezi-vodami/119820124
888,120847964,"Poříčí, Brno - Pisárky",CZ,49.1852523396855,16.586745665311998,point,52.0,17000.0,CZK,Pronájem bytu 2+kk 52 m²,apartment,rent,https://www.sreality.cz/detail/pronajem/byt/2+kk/brno-pisarky-porici/120847964
891,119946844,"Kamenná, Chomutov",CZ,50.48345062826771,13.431763274924801,line,75.0,7500.0,CZK,Pronájem bytu 3+1 75 m²,apartment,rent,https://www.sreality.cz/detail/pronajem/byt/3+1/chomutov-chomutov-kamenna/119946844
893,121962076,"Moskevská, Most",CZ,50.505536736968786,13.6515014722047,line,27.0,5800.0,CZK,Pronájem bytu 1+kk 27 m²,apartment,rent,https://www.sreality.cz/detail/pronajem/byt/1+kk/most-most-moskevska/121962076
